Name,Address,Location,Cuisine,Longitude,Latitude,PhoneNumber,Url,Award,MinPrice_USD,MaxPrice_USD
Aqua,"Parkstraße 1, Wolfsburg, 38440, Germany",Wolfsburg,"Creative, Modern Cuisine",10.789999,52.4331722,4.95362E+11,https://guide.michelin.com/en/niedersachsen/wolfsburg/restaurant/aqua79029,3 MICHELIN Stars,252.00000000000003,252.00000000000003
The Table Kevin Fehling,"Shanghaiallee 15, Hamburg, 20457, Germany",Hamburg,Creative,10.0029797,53.5426229,4.94023E+11,https://guide.michelin.com/en/hamburg-region/hamburg/restaurant/the-table-kevin-fehling,3 MICHELIN Stars,257.6,257.6
Restaurant Überfahrt Christian Jürgens,"Überfahrtstraße 10, Rottach-Egern, 83700, Germany",Rottach-Egern,Creative,11.7582292,47.6966846,4980226690,https://guide.michelin.com/en/bayern/rottach-egern/restaurant/restaurant-uberfahrt-christian-jurgens,3 MICHELIN Stars,290.08000000000004,357.28000000000003
Victor's Fine Dining by christian bau,"Schlossstraße 27, Perl, 66706, Germany",Perl,Creative,6.3872109,49.5351732,49686679118,https://guide.michelin.com/en/saarland/perl/restaurant/victor-s-fine-dining-by-christian-bau,3 MICHELIN Stars,229.60000000000002,330.40000000000003
Rutz,"Chausseestraße 8, Berlin, 10115, Germany",Berlin,"Modern Cuisine, Creative",13.3860867,52.5283507,4.93025E+11,https://guide.michelin.com/en/berlin-region/berlin/restaurant/rutz,3 MICHELIN Stars,221.76000000000002,274.40000000000003
Restaurant Bareiss,"Hermine-Bareiss-Weg 1, Baiersbronn, 72270, Germany",Baiersbronn,Classic French,8.3269876,48.5205845,497442470,https://guide.michelin.com/en/baden-wurttemberg/baiersbronn/restaurant/restaurant-bareiss,3 MICHELIN Stars,168.00000000000003,375.20000000000005
temporaire - Schwarzwaldstube,"Tonbachstraße 237, Baiersbronn, 72270, Germany",Baiersbronn,"Classic French, Creative",8.3590633,48.5361528,4974424920,https://guide.michelin.com/en/baden-wurttemberg/baiersbronn/restaurant/temporaire-schwarzwaldstube,3 MICHELIN Stars,240.8,296.8
schanz. restaurant.,"Bahnhofstraße 8a, Piesport, 54498, Germany",Piesport,"Modern French, Creative",6.9266002,49.8776003,49650792520,https://guide.michelin.com/en/rheinland-pfalz/piesport/restaurant/schanz-restaurant,3 MICHELIN Stars,128.8,199.36
Waldhotel Sonnora,"Auf'm Eichelfeld 1, Dreis, 54518, Germany",Dreis,Classic French,6.8109342,49.9377323,49657898220,https://guide.michelin.com/en/rheinland-pfalz/dreis/restaurant/waldhotel-sonnora,3 MICHELIN Stars,252.00000000000003,278.88000000000005
L'Enclume,"Cavendish Street, Cartmel, LA11 6PZ, United Kingdom",Cartmel,Creative,-2.9538566,54.2017254,4.4154E+11,https://guide.michelin.com/en/cumbria/cartmel/restaurant/l-enclume,3 MICHELIN Stars,105.07000000000001,232.75
Fat Duck,"High Street, Bray, SL6 2AQ, United Kingdom",Bray,Creative,-0.7017529,51.5078582,4.41629E+11,https://guide.michelin.com/en/windsor-and-maidenhead/bray/restaurant/fat-duck,3 MICHELIN Stars,365.75,498.75
Waterside Inn,"Ferry Road, Bray, SL6 2AT, United Kingdom",Bray,Classic French,-0.6994376,51.5091092,4.41629E+11,https://guide.michelin.com/en/windsor-and-maidenhead/bray/restaurant/waterside-inn,3 MICHELIN Stars,226.10000000000002,250.04000000000002
Restaurant Gordon Ramsay,"68-69 Royal Hospital Road, London, SW3 4HP, United Kingdom",London,French,-0.1621766,51.4854381,4.42074E+11,https://guide.michelin.com/en/greater-london/london/restaurant/restaurant-gordon-ramsay,3 MICHELIN Stars,159.60000000000002,292.6
Hélène Darroze at The Connaught,"Carlos Place, London, W1K 2AL, United Kingdom",London,Modern Cuisine,-0.1492905,51.510188,4.42031E+11,https://guide.michelin.com/en/greater-london/london/restaurant/helene-darroze-at-the-connaught,3 MICHELIN Stars,113.05000000000001,246.05
CORE by Clare Smyth,"92 Kensington Park Road, London, W11 2PN, United Kingdom",London,Modern British,-0.2030649,51.5126689,4.42039E+11,https://guide.michelin.com/en/greater-london/london/restaurant/core-by-clare-smyth,3 MICHELIN Stars,166.25,259.35
Sketch (The Lecture Room & Library),"9 Conduit Street, London, W1S 2XG, United Kingdom",London,Modern French,-0.1415369,51.5126775,4.42077E+11,https://guide.michelin.com/en/greater-london/london/restaurant/sketch-the-lecture-room-library,3 MICHELIN Stars,166.25,332.5
Alain Ducasse at The Dorchester,"Park Lane, London, W1K 1QA, United Kingdom",London,French,-0.152575,51.5073381,4.42076E+11,https://guide.michelin.com/en/greater-london/london/restaurant/alain-ducasse-at-the-dorchester,3 MICHELIN Stars,126.35000000000001,259.35
Amador,"Grinzinger Straße 86, Vienna, 1190, Austria",Vienna,"Creative, Contemporary",16.3586003,48.2540114,4.36609E+11,https://guide.michelin.com/en/vienna/wien/restaurant/amador,3 MICHELIN Stars,296.8,296.8
Jade Dragon,"Estrada do Istmo, Macau",Macau,Cantonese,113.56715,22.149137,85388682822,https://guide.michelin.com/en/macau-region/macau/restaurant/jade-dragon,3 MICHELIN Stars,132.0,168.17868367760263
Robuchon au Dôme,"Avenida de Lisboa, Macau",Macau,French Contemporary,113.54395,22.189949,85388037878,https://guide.michelin.com/en/macau-region/macau/restaurant/robuchon-au-dome,3 MICHELIN Stars,148.2,168.17868367760263
The Eight,"Avenida de Lisboa, Macau",Macau,Cantonese,113.54341,22.190475,85388037788,https://guide.michelin.com/en/macau-region/macau/restaurant/the-eight,3 MICHELIN Stars,104.47337539432174,168.17868367760263
8 1/2 Otto e Mezzo - Bombana,"18 Chater Road, Hong Kong",Hong Kong,Italian,114.15867,22.2814635,85225378859,https://guide.michelin.com/en/hong-kong-region/hong-kong/restaurant/8%C2%BD-otto-e-mezzo-bombana,3 MICHELIN Stars,91.0,168.17868367760263
T'ang Court,"8 Peking Road, Hong Kong",Hong Kong,Cantonese,114.1698,22.296572,85221327898,https://guide.michelin.com/en/hong-kong-region/hong-kong/restaurant/t-ang-court,3 MICHELIN Stars,104.47337539432174,168.17868367760263
Sushi Shikon,"15 Queen's Road Central, Hong Kong",Hong Kong,Sushi,114.1577893,22.2806103,85226436800,https://guide.michelin.com/en/hong-kong-region/hong-kong/restaurant/sushi-shikon,3 MICHELIN Stars,104.47337539432174,168.17868367760263
Caprice,"8 Finance Street, Hong Kong",Hong Kong,French Contemporary,114.1566097,22.2866489,85231968860,https://guide.michelin.com/en/hong-kong-region/hong-kong/restaurant/caprice,3 MICHELIN Stars,96.85000000000001,168.17868367760263
Forum,"255-257 Gloucester Road, Hong Kong",Hong Kong,Cantonese,114.1821905,22.2813972,85228698282,https://guide.michelin.com/en/hong-kong-region/hong-kong/restaurant/forum,3 MICHELIN Stars,104.47337539432174,168.17868367760263
Lung King Heen,"8 Finance Street, Hong Kong",Hong Kong,Cantonese,114.1580538,22.2860122,85231968880,https://guide.michelin.com/en/hong-kong-region/hong-kong/restaurant/lung-king-heen,3 MICHELIN Stars,98.8,168.17868367760263
L'Atelier de Joël Robuchon,"15 Queen's Road Central, Hong Kong",Hong Kong,French Contemporary,114.15816,22.281199,85221669000,https://guide.michelin.com/en/hong-kong-region/hong-kong/restaurant/l-atelier-de-joel-robuchon,3 MICHELIN Stars,88.4,168.17868367760263
Azurmendi,"Legina Auzoa, Larrabetzu, 48195, Spain",Larrabetzu,Creative,-2.81454,43.26065,34944558359,https://guide.michelin.com/en/pais-vasco/larrabetzu/restaurant/azurmendi,3 MICHELIN Stars,280.0,280.0
Martín Berasategui,"Loidi 4, Lasarte - Oria, 20160, Spain",Lasarte - Oria,Creative,-2.0152402,43.2664755,34943366471,https://guide.michelin.com/en/pais-vasco/lasarte-oria/restaurant/martin-berasategui,3 MICHELIN Stars,246.40000000000003,324.8
Aponiente,"Francisco Cossi Ochoa, El Puerto de Santa María, 11500, Spain",El Puerto de Santa María,"Creative, Innovative",-6.2164435,36.6033273,34606225859,https://guide.michelin.com/en/andalucia/el-puerto-de-santa-maria/restaurant/aponiente,3 MICHELIN Stars,240.8,240.8
El Celler de Can Roca,"Can Sunyer 48, Girona, 17007, Spain",Girona,Creative,2.807927,41.9932026,34972222157,https://guide.michelin.com/en/catalunya/girona/restaurant/el-celler-de-can-roca,3 MICHELIN Stars,212.8,392.00000000000006
Quique Dacosta,"Rascassa 1, Dénia, 03700, Spain",Dénia,Creative,0.0852209,38.8537884,34965784179,https://guide.michelin.com/en/comunidad-valenciana/dnia/restaurant/quique-dacosta,3 MICHELIN Stars,235.20000000000002,235.20000000000002
Cenador de Amós,"Plaza del Sol, Villaverde de Pontones, 39793, Spain",Villaverde de Pontones,Modern Cuisine,-3.6988243,43.4124884,34942508243,https://guide.michelin.com/en/cantabria/villaverde-de-pontones/restaurant/cenador-de-amos,3 MICHELIN Stars,220.64000000000001,263.20000000000005
DiverXO,"Padre Damián 23, Madrid, 28036, Spain",Madrid,Creative,-3.6856715,40.4582913,34915700766,https://guide.michelin.com/en/comunidad-de-madrid/madrid/restaurant/diverxo,3 MICHELIN Stars,408.8,408.8
Arzak,"Avenida Alcalde José Elosegi 273, Donostia / San Sebastián, 20015, Spain",Donostia / San Sebastián,"Creative, Traditional Cuisine",-1.9490932,43.3214016,34943278465,https://guide.michelin.com/en/pais-vasco/es-donostia-san-sebastian/restaurant/arzak,3 MICHELIN Stars,257.6,291.20000000000005
Akelaŕe,"Paseo del Padre Orcolaga 56, Donostia / San Sebastián, 20008, Spain",Donostia / San Sebastián,"Creative, Traditional Cuisine",-2.0731493,43.3027805,34943311209,https://guide.michelin.com/en/pais-vasco/es-donostia-san-sebastian/restaurant/akelare,3 MICHELIN Stars,268.8,268.8
Lasarte,"Mallorca 259, Barcelona, 08008, Spain",Barcelona,Creative,2.1622018,41.3936278,34934453242,https://guide.michelin.com/en/catalunya/barcelona/restaurant/lasarte,3 MICHELIN Stars,196.00000000000003,280.0
ABaC,"Avenida del Tibidabo 1, Barcelona, 08022, Spain",Barcelona,Creative,2.1367664,41.4103822,34933196600,https://guide.michelin.com/en/catalunya/barcelona/restaurant/abac,3 MICHELIN Stars,280.0,280.0
L'OSIER,"7-5-5 Ginza, Chuo-ku, Tokyo, 104-0061, Japan",Tokyo,French,139.761233,35.6696524,-8808,https://guide.michelin.com/en/tokyo-region/tokyo/restaurant/l-osier,3 MICHELIN Stars,104.47337539432174,168.17868367760263
Sazenka,"4-7-5 Minamiazabu, Minato-ku, Tokyo, 106-0047, Japan",Tokyo,Chinese,139.728395,35.649578,-3857,https://guide.michelin.com/en/tokyo-region/tokyo/restaurant/sazenka,3 MICHELIN Stars,104.47337539432174,168.17868367760263
Kagurazaka Ishikawa,"5-37 Kagurazaka, Shinjuku-ku, Tokyo, 162-0825, Japan",Tokyo,Japanese,139.739477,35.701185,-213,https://guide.michelin.com/en/tokyo-region/tokyo/restaurant/kagurazaka-ishikawa,3 MICHELIN Stars,104.47337539432174,168.17868367760263
Kanda,"1-1-1 Atago, Minato-ku, Tokyo, 105-0002, Japan",Tokyo,Japanese,139.748172,35.665976,-5123,https://guide.michelin.com/en/tokyo-region/tokyo/restaurant/kanda,3 MICHELIN Stars,104.47337539432174,168.17868367760263
L'Effervescence,"2-26-4 Nishiazabu, Minato-ku, Tokyo, 106-0031, Japan",Tokyo,French,139.719454,35.660299,-14453,https://guide.michelin.com/en/tokyo-region/tokyo/restaurant/l-effervescence,3 MICHELIN Stars,104.47337539432174,168.17868367760263
Quintessence,"6-7-29 Kitashinagawa, Shinagawa-ku, Tokyo, 141-0001, Japan",Tokyo,French,139.7329477,35.6240721,-5554,https://guide.michelin.com/en/tokyo-region/tokyo/restaurant/quintessence-1193907,3 MICHELIN Stars,104.47337539432174,168.17868367760263
Azabu Kadowaki,"2-7-2 Azabujuban, Minato-ku, Tokyo, 106-0045, Japan",Tokyo,Japanese,139.733551,35.655993,-7512,https://guide.michelin.com/en/tokyo-region/tokyo/restaurant/azabu-kadowaki,3 MICHELIN Stars,104.47337539432174,168.17868367760263
Joël Robuchon,"1-13-1 Mita, Meguro-ku, Tokyo, 153-0062, Japan",Tokyo,French,139.7144835,35.6418703,-5958,https://guide.michelin.com/en/tokyo-region/tokyo/restaurant/joel-robuchon-1193981,3 MICHELIN Stars,104.47337539432174,168.17868367760263
RyuGin,"1-1-2 Yurakucho, Chiyoda-ku, Tokyo, 100-0006, Japan",Tokyo,Japanese,139.759193,35.673583,-5824,https://guide.michelin.com/en/tokyo-region/tokyo/restaurant/ryugin-1194232,3 MICHELIN Stars,104.47337539432174,168.17868367760263
Sushi Yoshitake,"7-8-13 Ginza, Chuo-ku, Tokyo, 104-0061, Japan",Tokyo,Sushi,139.761937,35.66894,-12771,https://guide.michelin.com/en/tokyo-region/tokyo/restaurant/sushi-yoshitake,3 MICHELIN Stars,104.47337539432174,168.17868367760263
Kohaku,"3-4 Kagurazaka, Shinjuku-ku, Tokyo, 162-0825, Japan",Tokyo,Japanese,139.741008,35.700701,-213,https://guide.michelin.com/en/tokyo-region/tokyo/restaurant/kohaku,3 MICHELIN Stars,104.47337539432174,168.17868367760263
Makimura,"3-11-5 Minamioi, Shinagawa-ku, Tokyo, 140-0013, Japan",Tokyo,Japanese,139.735467,35.590864,-9343,https://guide.michelin.com/en/tokyo-region/tokyo/restaurant/makimura,3 MICHELIN Stars,104.47337539432174,168.17868367760263
Gaon,"M Floor Horim Art Center, 317 Dosan-daero, Gangnam-gu, SEOUL, South Korea",SEOUL,Korean,127.03595,37.52265,-9568,https://guide.michelin.com/en/seoul-capital-area/kr-seoul/restaurant/gaon,3 MICHELIN Stars,104.47337539432174,168.17868367760263
La Yeon,"23F Shilla Hotel, 249 Dongho-ro, Jung-gu, SEOUL, South Korea",SEOUL,Korean,127.00517,37.555813,-4775,https://guide.michelin.com/en/seoul-capital-area/kr-seoul/restaurant/la-yeon,3 MICHELIN Stars,104.47337539432174,168.17868367760263
Dal Pescatore,"località Runate 15, Runate, 46013, Italy",Runate,"Modern Cuisine, Italian",10.3565788,45.1712728,3.90377E+11,https://guide.michelin.com/en/lombardia/runate/restaurant/dal-pescatore,3 MICHELIN Stars,168.00000000000003,336.00000000000006
Le Calandre,"via Liguria 1, località Sarmeola, Rubano, 35030, Italy",Rubano,Creative,11.8096633,45.4215425,39049630303,https://guide.michelin.com/en/veneto/rubano/restaurant/le-calandre,3 MICHELIN Stars,168.00000000000003,252.00000000000003
Reale,"contrada Santa Liberata, località Casadonna, Castel di Sangro, 67031, Italy",Castel di Sangro,"Creative, Contemporary",14.10107,41.77379,39086469382,https://guide.michelin.com/en/abruzzo/castel-di-sangro/restaurant/reale,3 MICHELIN Stars,190.4,246.40000000000003
Osteria Francescana,"via Stella 22, Modena, 41121, Italy",Modena,Creative,10.9215518,44.6448099,39059223912,https://guide.michelin.com/en/emilia-romagna/modena/restaurant/osteria-francescana,3 MICHELIN Stars,358.40000000000003,358.40000000000003
Da Vittorio,"via Cantalupa 17, Brusaporto, 24060, Italy",Brusaporto,"Modern Cuisine, Contemporary",9.7692511,45.6756778,39035681024,https://guide.michelin.com/en/lombardia/brusaporto/restaurant/da-vittorio,3 MICHELIN Stars,246.40000000000003,425.6
St. Hubertus,"strada Micura de Rue 20, San Cassiano, 39030, Italy",San Cassiano,"Creative, Alpine",11.9305901,46.5717631,3.90472E+11,https://guide.michelin.com/en/trentino-alto-adige/san-cassiano/restaurant/st-hubertus,3 MICHELIN Stars,313.6,347.20000000000005
Enrico Bartolini al Mudec,"via Tortona 56, Milan, 20123, Italy",Milan,"Creative, Innovative",9.161865,45.4516,3.90284E+11,https://guide.michelin.com/en/lombardia/milano/restaurant/enrico-bartolini-al-mudec,3 MICHELIN Stars,224.00000000000003,336.00000000000006
Enoteca Pinchiorri,"via Ghibellina 87, Florence, 50122, Italy",Florence,Modern Cuisine,11.2621974,43.770066,39055242777,https://guide.michelin.com/en/toscana/firenze/restaurant/enoteca-pinchiorri,3 MICHELIN Stars,168.00000000000003,386.40000000000003
Piazza Duomo,"vicolo dell'Arco 1, angolo piazza Risorgimento 4, Alba, 12051, Italy",Alba,"Creative, Modern Cuisine",8.0359341,44.7005555,3.90173E+11,https://guide.michelin.com/en/piemonte/alba/restaurant/piazza-duomo,3 MICHELIN Stars,302.40000000000003,336.00000000000006
Uliassi,"banchina di Levante 6, Senigallia, 60019, Italy",Senigallia,"Creative, Seafood",13.2206503,43.7194609,3907165463,https://guide.michelin.com/en/marche/senigallia/restaurant/uliassi,3 MICHELIN Stars,224.00000000000003,246.40000000000003
La Pergola,"via Cadlolo 101, Rome, 00136, Italy",Rome,"Modern Cuisine, Contemporary",12.4461151,41.9187946,3.90635E+11,https://guide.michelin.com/en/lazio/roma/restaurant/la-pergola69016,3 MICHELIN Stars,280.0,324.8
Kashiwaya,"2-5-18 Senriyamanishi, Suita, Osaka, 565-0851, Japan",Osaka,Japanese,135.501289,34.770287,-7804,https://guide.michelin.com/en/osaka-region/osaka/restaurant/kashiwaya-1193128,3 MICHELIN Stars,104.47337539432174,168.17868367760263
HAJIME,"1-9-11 Edobori, Nishi-ku, Osaka, 550-0002, Japan",Osaka,Innovative,135.496058,34.688588,-12319,https://guide.michelin.com/en/osaka-region/osaka/restaurant/hajime,3 MICHELIN Stars,104.47337539432174,168.17868367760263
Taian,"1-21-2 Shimanochi, Chuo-ku, Osaka, 542-0082, Japan",Osaka,Japanese,135.507222,34.673298,-6094,https://guide.michelin.com/en/osaka-region/osaka/restaurant/taian,3 MICHELIN Stars,104.47337539432174,168.17868367760263
Isshisoden Nakamura,"136 Matsushitacho, Nakagyo-ku, Kyoto, 604-8093, Japan",Kyoto,Japanese,135.765047,35.010347,2443,https://guide.michelin.com/en/kyoto-region/kyoto/restaurant/isshisoden-nakamura,3 MICHELIN Stars,104.47337539432174,168.17868367760263
Kikunoi Honten,"459 Shimokawaracho, Higashiyama-ku, Kyoto, 605-0825, Japan",Kyoto,Japanese,135.782028,35.00149,7599,https://guide.michelin.com/en/kyoto-region/kyoto/restaurant/kikunoi-honten,3 MICHELIN Stars,104.47337539432174,168.17868367760263
Gion Sasaki,"566-27 Komatsucho, Higashiyama-ku, Kyoto, 605-0811, Japan",Kyoto,Japanese,135.774997,34.998895,2624,https://guide.michelin.com/en/kyoto-region/kyoto/restaurant/gion-sasaki,3 MICHELIN Stars,104.47337539432174,168.17868367760263
Mizai,"613 Maruyamacho, Higashiyama-ku, Kyoto, 605-0071, Japan",Kyoto,Japanese,135.782364,35.002993,4314,https://guide.michelin.com/en/kyoto-region/kyoto/restaurant/mizai,3 MICHELIN Stars,104.47337539432174,168.17868367760263
Hyotei,"35 Nanzenji-kusagawacho, Sakyo-ku, Kyoto, 606-8437, Japan",Kyoto,Japanese,135.786603,35.011328,3288,https://guide.michelin.com/en/kyoto-region/kyoto/restaurant/hyotei,3 MICHELIN Stars,104.47337539432174,168.17868367760263
Maeda,"570-118 Giommachi-minamigawa, Higashiyama-ku, Kyoto, 605-0074, Japan",Kyoto,Japanese,135.7741646,35.0015885,2073,https://guide.michelin.com/en/kyoto-region/kyoto/restaurant/maeda,3 MICHELIN Stars,104.47337539432174,168.17868367760263
The French Laundry,"6640 Washington St., Yountville, 94599, United States",Yountville,"Contemporary, French",-122.36474,38.40443,-1617,https://guide.michelin.com/en/california/yountville/restaurant/the-french-laundry,3 MICHELIN Stars,350.0,450.0
SingleThread,"131 North St., Healdsburg, 95448, United States",Healdsburg,"Contemporary, Californian",-122.8697229,38.6122599,-3662,https://guide.michelin.com/en/california/healdsburg/restaurant/singlethread,3 MICHELIN Stars,375.0,375.0
Manresa,"320 Village Ln., Los Gatos, 95030, United States",Los Gatos,"Contemporary, Californian",-121.98071,37.22761,-3276,https://guide.michelin.com/en/california/los-gatos/restaurant/manresa,3 MICHELIN Stars,325.0,325.0
Atelier Crenn,"3127 Fillmore St., San Francisco, 94123, United States",San Francisco,"Contemporary, French",-122.43586,37.79835,515,https://guide.michelin.com/en/california/san-francisco/restaurant/atelier-crenn,3 MICHELIN Stars,298.0,298.0
Benu,"22 Hawthorne St., San Francisco, 94105, United States",San Francisco,"Asian, Contemporary",-122.3990601,37.7853763,-4130,https://guide.michelin.com/en/california/san-francisco/restaurant/benu,3 MICHELIN Stars,350.0,350.0
Quince,"470 Pacific Ave., San Francisco, 94133, United States",San Francisco,"Contemporary, Californian",-122.4032607,37.7975054,-7860,https://guide.michelin.com/en/california/san-francisco/restaurant/quince,3 MICHELIN Stars,360.0,360.0
Frantzén,"Klara Norra Kyrkogata 26, Stockholm, 111 22, Sweden",Stockholm,Modern Cuisine,18.0597905,59.3341785,468208580,https://guide.michelin.com/en/stockholm-region/stockholm/restaurant/frantzen,3 MICHELIN Stars,104.47337539432174,168.17868367760263
Maaemo,"Dronning Eufemias gate 23, Oslo, 0194, Norway",Oslo,"Modern Cuisine, Creative",10.7586363,59.9075293,4722179969,https://guide.michelin.com/en/oslo-region/oslo/restaurant/maaemo-1194933,3 MICHELIN Stars,104.47337539432174,168.17868367760263
Geranium,"Per Henrik Lings Allé, Parken National Stadium, Copenhagen, 2100 Ø, Denmark",Copenhagen,"Creative, Contemporary",12.5725289,55.7040847,4569960020,https://guide.michelin.com/en/capital-region/copenhagen/restaurant/geranium,3 MICHELIN Stars,104.47337539432174,168.17868367760263
noma,"Refshalevej 96, Copenhagen, 1432 K, Denmark",Copenhagen,Creative,12.6106175,55.6833118,4532963297,https://guide.michelin.com/en/capital-region/copenhagen/restaurant/noma,3 MICHELIN Stars,104.47337539432174,168.17868367760263
Odette,"1 St. Andrew's Road (entrance via Supreme Court wing's foyer), 178957, Singapore",Singapore,French Contemporary,103.8516,1.2896459,6563850498,https://guide.michelin.com/en/singapore-region/singapore/restaurant/odette,3 MICHELIN Stars,220.52,279.71999999999997
Les Amis,"1 Scotts Road, 228208, Singapore",Singapore,French,103.8314,1.3066648,6567332225,https://guide.michelin.com/en/singapore-region/singapore/restaurant/les-amis,3 MICHELIN Stars,166.5,377.4
Zén,"41 Bukit Pasoh Road, 089855, Singapore",Singapore,European Contemporary,103.84042,1.2796271,6592366368,https://guide.michelin.com/en/singapore-region/singapore/restaurant/zen,3 MICHELIN Stars,333.0,333.0
Eleven Madison Park,"11 Madison Ave., New York, 10010, United States",New York,"Contemporary, Innovative",-73.9872414,40.7415543,-582,https://guide.michelin.com/en/new-york-state/new-york/restaurant/eleven-madison-park,3 MICHELIN Stars,125.0,285.0
Per Se,"10 Columbus Circle, New York, 10019, United States",New York,"Contemporary, French",-73.9825882,40.7680545,-8946,https://guide.michelin.com/en/new-york-state/new-york/restaurant/per-se,3 MICHELIN Stars,355.0,355.0
Masa,"10 Columbus Circle, New York, 10019, United States",New York,"Japanese, Sushi",-73.98234,40.76819,-9411,https://guide.michelin.com/en/new-york-state/new-york/restaurant/masa,3 MICHELIN Stars,595.0,595.0
Le Bernardin,"155 W. 51st St., New York, 10019, United States",New York,Seafood,-73.98223,40.76177,-857,https://guide.michelin.com/en/new-york-state/new-york/restaurant/le-bernardin,3 MICHELIN Stars,93.0,228.0
Chef's Table at Brooklyn Fare,"431 W. 37th St., New York, 10018, United States",New York,Contemporary,-73.9964997,40.7560823,1425,https://guide.michelin.com/en/new-york-state/new-york/restaurant/chef-s-table-at-brooklyn-fare,3 MICHELIN Stars,395.0,395.0
Alinea,"1723 N. Halsted St., Chicago, 60614, United States",Chicago,"Contemporary, Creative",-87.648174,41.9132737,335,https://guide.michelin.com/en/illinois/chicago/restaurant/alinea,3 MICHELIN Stars,210.0,365.0
The Inn at Little Washington,"309 Middle St., Washington, 22747, United States",Washington,"American, French",-78.1595348,38.7134767,-2935,https://guide.michelin.com/en/district-of-columbia/washington-dc/restaurant/the-inn-at-little-washington,3 MICHELIN Stars,238.0,238.0
Inter Scaldes,"Zandweg 2, Kruiningen, 4416 NA, Netherlands",Kruiningen,Modern Cuisine,4.0241076,51.4571608,31113381753,https://guide.michelin.com/en/zeeland/kruiningen/restaurant/inter-scaldes,3 MICHELIN Stars,184.8,425.6
De Librije,"Spinhuisplein 1, Zwolle, 8011 ZZ, Netherlands",Zwolle,Modern Cuisine,6.0980183,52.5153644,31388530000,https://guide.michelin.com/en/overijssel/zwolle/restaurant/de-librije,3 MICHELIN Stars,259.84000000000003,259.84000000000003
Restaurant de l'Hôtel de Ville,"Rue d'Yverdon 1, Crissier, 1023, Switzerland",Crissier,Classic French,6.5766897,46.553994,41216340505,https://guide.michelin.com/en/vaud/crissier/restaurant/restaurant-de-l-hotel-de-ville,3 MICHELIN Stars,232.20000000000002,421.20000000000005
Cheval Blanc by Peter Knogl,"Blumenrain 8, Basel, 4001, Switzerland",Basel,Classic French,7.5875706,47.5604261,41612605007,https://guide.michelin.com/en/basel-stadt/basel/restaurant/cheval-blanc-by-peter-knogl,3 MICHELIN Stars,210.60000000000002,291.6
Schloss Schauenstein,"Schlossgass 77, Fürstenau, 7414, Switzerland",Fürstenau,"Creative, Country cooking",9.4461607,46.7212336,41816321080,https://guide.michelin.com/en/graubunden/frstenau/restaurant/schloss-schauenstein,3 MICHELIN Stars,233.28000000000003,356.40000000000003
Le Louis XV - Alain Ducasse à l'Hôtel de Paris,"Place du Casino, Monaco, 98000, France",Monaco,"Mediterranean Cuisine, Modern Cuisine",7.4271047,43.7391839,37798068864,https://guide.michelin.com/en/monaco-region/monaco/restaurant/le-louis-xv-alain-ducasse-a-l-hotel-de-paris,3 MICHELIN Stars,212.8,425.6
Assiette Champenoise,"40 avenue Paul-Vaillant-Couturier, à Tinqueux, Reims, 51430, France",Reims,Creative,4.0040608,49.2476571,33326846464,https://guide.michelin.com/en/grand-est/reims/restaurant/assiette-champenoise,3 MICHELIN Stars,162.4,375.20000000000005
Les Prés d'Eugénie - Michel Guérard,"Place de l'Impératrice, Eugénie-les-Bains, 40320, France",Eugénie-les-Bains,Classic Cuisine,-0.379286,43.6967029,33558050607,https://guide.michelin.com/en/nouvelle-aquitaine/eugnie-les-bains/restaurant/les-pres-d-eugenie-michel-guerard,3 MICHELIN Stars,296.8,330.40000000000003
Georges Blanc,"Place du Marché, Vonnas, 01540, France",Vonnas,Classic Cuisine,4.989383,46.219982,33474509090,https://guide.michelin.com/en/auvergne-rhone-alpes/vonnas/restaurant/georges-blanc,3 MICHELIN Stars,280.0,358.40000000000003
La Vague d'Or - Cheval Blanc St-Tropez,"Plage de la Bouillabaisse, Saint-Tropez, 83990, France",Saint-Tropez,"Creative, Modern Cuisine",6.6261535,43.2665849,33494559100,https://guide.michelin.com/en/provence-alpes-cote-dazur/saint-tropez/restaurant/la-vague-d-or-cheval-blanc-st-tropez,3 MICHELIN Stars,347.20000000000005,420.00000000000006
Mirazur,"30 avenue Aristide-Briand, Menton, 06500, France",Menton,Creative,7.5281451,43.7860241,33492418686,https://guide.michelin.com/en/provence-alpes-cote-dazur/menton/restaurant/mirazur,3 MICHELIN Stars,425.6,425.6
René et Maxime Meilleur,"Hameau de  Saint-Marcel, Saint-Martin-de-Belleville, 73440, France",Saint-Martin-de-Belleville,"Creative, Regional Cuisine",6.5133065,45.3690463,33479089677,https://guide.michelin.com/en/auvergne-rhone-alpes/saint-martin-de-belleville/restaurant/rene-et-maxime-meilleur,3 MICHELIN Stars,267.68,435.68000000000006
Alléno Paris au Pavillon Ledoyen,"8 avenue Dutuit, Paris, 75008, France",Paris,Creative,2.3164993,48.8660932,33153051000,https://guide.michelin.com/en/ile-de-france/paris/restaurant/alleno-paris-au-pavillon-ledoyen,3 MICHELIN Stars,313.6,442.40000000000003
Le 1947 - Cheval Blanc,"Le Jardin Alpin, Courchevel 1850, Courchevel, 73120, France",Courchevel,"Creative, Modern Cuisine",6.6338696,45.4094877,33479005050,https://guide.michelin.com/en/auvergne-rhone-alpes/courchevel/restaurant/le-1947,3 MICHELIN Stars,397.6,442.40000000000003
AM par Alexandre Mazzia,"9 rue François-Rocca, Marseille, 13008, France",Marseille,Creative,5.3862325,43.2701104,33491248363,https://guide.michelin.com/en/provence-alpes-cote-dazur/marseille/restaurant/am-par-alexandre-mazzia,3 MICHELIN Stars,196.00000000000003,431.20000000000005
Pic,"285 avenue Victor-Hugo, Valence, 26000, France",Valence,Creative,4.8854965,44.9177848,33475441532,https://guide.michelin.com/en/auvergne-rhone-alpes/valence/restaurant/pic,3 MICHELIN Stars,392.00000000000006,392.00000000000006
Troisgros - Le Bois sans Feuilles,"728 route de Villerest, Ouches, 42155, France",Ouches,Creative,3.99236,46.01033,33477716697,https://guide.michelin.com/en/auvergne-rhone-alpes/ouches/restaurant/troisgros-le-bois-sans-feuilles,3 MICHELIN Stars,145.60000000000002,369.6
Pierre Gagnaire,"6 rue Balzac, Paris, 75008, France",Paris,Creative,2.3003862,48.8732506,33158361250,https://guide.michelin.com/en/ile-de-france/paris/restaurant/pierre-gagnaire6112,3 MICHELIN Stars,134.4,448.00000000000006
Le Pré Catelan,"Route de Suresnes - bois de Boulogne, Paris, 75016, France",Paris,"Creative, Modern Cuisine",2.2507182,48.8639374,33144144114,https://guide.michelin.com/en/ile-de-france/paris/restaurant/le-pre-catelan,3 MICHELIN Stars,168.00000000000003,369.6
L'Ambroisie,"9 place des Vosges, Paris, 75004, France",Paris,Classic Cuisine,2.3645215,48.855494,33142785145,https://guide.michelin.com/en/ile-de-france/paris/restaurant/l-ambroisie,3 MICHELIN Stars,369.6,369.6
Épicure,"Le Bristol, 112 rue du Faubourg-Saint-Honoré, Paris, 75008, France",Paris,Modern Cuisine,2.3143664,48.8717289,33153434340,https://guide.michelin.com/en/ile-de-france/paris/restaurant/epicure,3 MICHELIN Stars,347.20000000000005,425.6
Christophe Bacquié,"3001 route des Hauts-du-Camp, au Circuit Paul Ricard, Le Castellet, 83330, France",Le Castellet,Modern Cuisine,5.7835029,43.2502823,33494982969,https://guide.michelin.com/en/provence-alpes-cote-dazur/le-castellet/restaurant/christophe-bacquie,3 MICHELIN Stars,291.20000000000005,330.40000000000003
Maison Lameloise,"36 place d'Armes, Chagny, 71150, France",Chagny,Modern Cuisine,4.7530169,46.9079964,33385876565,https://guide.michelin.com/en/bourgogne-franche-comte/chagny/restaurant/maison-lameloise,3 MICHELIN Stars,95.2,291.20000000000005
Flocons de Sel,"1775 route du Leutaz, Le Leutaz, Megève, 74120, France",Megève,Creative,6.60007,45.82354,33450214999,https://guide.michelin.com/en/auvergne-rhone-alpes/megve/restaurant/flocons-de-sel,3 MICHELIN Stars,235.20000000000002,313.6
Le Cinq,"Four Seasons George V, 31 avenue George-V, Paris, 75008, France",Paris,Modern Cuisine,2.3008612,48.8687604,33149527154,https://guide.michelin.com/en/ile-de-france/paris/restaurant/le-cinq6102,3 MICHELIN Stars,425.6,425.6
Guy Savoy,"11 quai de Conti, Paris, 75006, France",Paris,Creative,2.3391955,48.8566248,33143804061,https://guide.michelin.com/en/ile-de-france/paris/restaurant/guy-savoy,3 MICHELIN Stars,280.0,593.6
Auberge du Vieux Puits,"5 avenue Saint-Victor, Fontjoncouse, 11360, France",Fontjoncouse,Creative,2.7893292,43.0481728,33468440737,https://guide.michelin.com/en/occitanie/fontjoncouse/restaurant/auberge-du-vieux-puits,3 MICHELIN Stars,218.40000000000003,252.00000000000003
Arpège,"84 rue de Varenne, Paris, 75007, France",Paris,Creative,2.3169648,48.855731,33147050906,https://guide.michelin.com/en/ile-de-france/paris/restaurant/arpege,3 MICHELIN Stars,207.20000000000002,515.2
Kei,"5 rue du Coq-Héron, Paris, 75001, France",Paris,Modern Cuisine,2.3422847,48.8643947,33142331474,https://guide.michelin.com/en/ile-de-france/paris/restaurant/kei,3 MICHELIN Stars,95.2,380.8
L'Oustau de Baumanière,"Mas de Baumanière, Les Baux-de-Provence, 13520, France",Les Baux-de-Provence,Modern Cuisine,4.7933262,43.7486439,33490543307,https://guide.michelin.com/en/provence-alpes-cote-dazur/les-baux-de-provence/restaurant/l-oustau-de-baumaniere,3 MICHELIN Stars,184.8,268.8
Christopher Coutanceau,"Plage de la Concurrence, La Rochelle, 17000, France",La Rochelle,Seafood,-1.1609135,46.1557284,33546414819,https://guide.michelin.com/en/nouvelle-aquitaine/la-rochelle/restaurant/christopher-coutanceau,3 MICHELIN Stars,212.8,296.8
Le Petit Nice,"Anse de Maldormé, Marseille, 13007, France",Marseille,Seafood,5.3521929,43.2803346,33491592592,https://guide.michelin.com/en/provence-alpes-cote-dazur/marseille/restaurant/le-petit-nice,3 MICHELIN Stars,201.60000000000002,481.6
Régis et Jacques Marcon,"Larsiallas, Saint-Bonnet-le-Froid, 43290, France",Saint-Bonnet-le-Froid,Creative,4.43436,45.13956,33471599372,https://guide.michelin.com/en/auvergne-rhone-alpes/saint-bonnet-le-froid/restaurant/regis-et-jacques-marcon,3 MICHELIN Stars,201.60000000000002,268.8
Le Clos des Sens,"13 rue Jean-Mermoz - à Annecy-le-Vieux, Annecy, 74940, France",Annecy,Creative,6.1442973,45.9180547,33450230790,https://guide.michelin.com/en/auvergne-rhone-alpes/annecy/restaurant/le-clos-des-sens,3 MICHELIN Stars,165.76000000000002,266.56
Zilte,"Hanzestedenplaats 5, Antwerpen, 2000, Belgium",Antwerpen,Creative,4.4049639,51.2287189,3232834040,https://guide.michelin.com/en/antwerpen/be-antwerpen/restaurant/t-zilte,3 MICHELIN Stars,218.40000000000003,369.6
Hof van Cleve,"Riemegemstraat 1, Kruishoutem, 9770, Belgium",Kruishoutem,Creative,3.5098648,50.9039501,3293835848,https://guide.michelin.com/en/oost-vlaanderen/kruishoutem/restaurant/hof-van-cleve,3 MICHELIN Stars,330.40000000000003,593.6
Ösch Noir,"Golfplatz 1, Donaueschingen, 78166, Germany",Donaueschingen,"Modern Cuisine, Classic Cuisine",8.5474271,47.9655266,49771840,https://guide.michelin.com/en/baden-wurttemberg/donaueschingen/restaurant/osch-noir,2 MICHELIN Stars,162.4,218.40000000000003
ES:SENZ,"Mietenkamer Straße 65, Grassau, 83224, Germany",Grassau,"Creative, Modern Cuisine",12.4656421,47.785695,4.98641E+11,https://guide.michelin.com/en/bayern/grassau/restaurant/es-senz,2 MICHELIN Stars,168.00000000000003,229.60000000000002
Luce d'Oro,"Elmau 2, Krün, 82493, Germany",Krün,"Modern Cuisine, Creative",11.1869112,47.4620032,498823180,https://guide.michelin.com/en/bayern/krn/restaurant/luce-d-oro,2 MICHELIN Stars,211.68,256.48
Tohru in der Schreiberei,"Burgstraße 5, Munich, 80331, Germany",Munich,"Modern Cuisine, Japanese Contemporary",11.5775303,48.1375661,4.98922E+11,https://guide.michelin.com/en/bayern/mnchen/restaurant/tohru-in-der-schreiberei,2 MICHELIN Stars,274.40000000000003,274.40000000000003
OPUS V,"O5, 9-12, Mannheim, 68161, Germany",Mannheim,"Modern Cuisine, Creative",8.4699546,49.4858598,4.96212E+11,https://guide.michelin.com/en/baden-wurttemberg/mannheim/restaurant/opus-v,2 MICHELIN Stars,122.08000000000001,207.20000000000002
Lorenz Adlon Esszimmer,"Unter den Linden 77, Berlin, 10117, Germany",Berlin,Creative,13.380011,52.5159333,4.93023E+11,https://guide.michelin.com/en/berlin-region/berlin/restaurant/lorenz-adlon-esszimmer,2 MICHELIN Stars,151.20000000000002,280.0
Falco,"Gerberstraße 15, Leipzig, 04105, Germany",Leipzig,Creative,12.3754206,51.3463665,4.9342E+11,https://guide.michelin.com/en/sachsen/leipzig/restaurant/falco,2 MICHELIN Stars,110.88000000000001,293.44000000000005
Söl'ring Hof,"Am Sandwall 1, Rantum, 25980, Germany",Rantum,"Creative, Country cooking",8.2887697,54.8536822,4.94652E+11,https://guide.michelin.com/en/schleswig-holstein/rantum/restaurant/sol-ring-hof,2 MICHELIN Stars,239.68000000000004,318.08000000000004
Obendorfers Eisvogel,"Hofenstetten 43, Neunburg vorm Wald, 92431, Germany",Neunburg vorm Wald,"Creative, Classic Cuisine",12.2619376,49.3383934,4994399500,https://guide.michelin.com/en/bayern/neunburg-vorm-wald/restaurant/obendorfer-s-eisvogel,2 MICHELIN Stars,162.4,236.32000000000002
etz,"Bindergasse 22, Nuremberg, 90402, Germany",Nuremberg,"Creative, Regional Cuisine",11.079949,49.4554627,4.99115E+12,https://guide.michelin.com/en/bayern/nurnberg/restaurant/etz,2 MICHELIN Stars,235.20000000000002,235.20000000000002
Steinheuers Restaurant Zur Alten Post,"Landskroner Straße 110, Bad Neuenahr-Ahrweiler, 53474, Germany",Bad Neuenahr-Ahrweiler,"Classic French, Classic Cuisine",7.1642775,50.5509788,49264194860,https://guide.michelin.com/en/rheinland-pfalz/bad-neuenahr-ahrweiler/restaurant/steinheuers-restaurant-zur-alten-post,2 MICHELIN Stars,173.60000000000002,218.40000000000003
Restaurant Heinz Winkler,"Kirchplatz 1, Aschau im Chiemgau, 83229, Germany",Aschau im Chiemgau,Classic French,12.3217303,47.779365,49805217990,https://guide.michelin.com/en/bayern/aschau-im-chiemgau/restaurant/restaurant-heinz-winkler,2 MICHELIN Stars,117.60000000000001,235.20000000000002
Haerlin,"Neuer Jungfernstieg 9, Hamburg, 20354, Germany",Hamburg,"Creative French, Classic Cuisine",9.9914638,53.5554424,4.94035E+11,https://guide.michelin.com/en/hamburg-region/hamburg/restaurant/haerlin,2 MICHELIN Stars,212.8,280.0
Vendôme,"Kadettenstraße, Bergisch Gladbach, 51429, Germany",Bergisch Gladbach,"Creative, Classic French",7.1604778,50.9665691,4.92204E+11,https://guide.michelin.com/en/nordrhein-westfalen/bergisch-gladbach/restaurant/vendome,2 MICHELIN Stars,268.8,319.20000000000005
Speisemeisterei,"Schloss Hohenheim 1B, Stuttgart, 70599, Germany",Stuttgart,"Modern Cuisine, International",9.2135508,48.7128772,4.97113E+12,https://guide.michelin.com/en/baden-wurttemberg/stuttgart/restaurant/speisemeisterei,2 MICHELIN Stars,166.88000000000002,211.68
Tim Raue,"Rudi-Dutschke-Straße 26, Berlin, 10969, Germany",Berlin,"Asian, Creative",13.3933841,52.5070342,4.93026E+11,https://guide.michelin.com/en/berlin-region/berlin/restaurant/tim-raue,2 MICHELIN Stars,98.56,277.76000000000005
CODA Dessert Dining,"Friedelstraße 47, Berlin, 12047, Germany",Berlin,"Creative, Innovative",13.4274219,52.49014,4.93091E+11,https://guide.michelin.com/en/berlin-region/berlin/restaurant/coda-dessert-dining,2 MICHELIN Stars,109.76,184.8
Rosin,"Hervester Straße 18, Dorsten, 46286, Germany",Dorsten,"Creative, Classic Cuisine",7.0132284,51.7191315,4923694322,https://guide.michelin.com/en/nordrhein-westfalen/dorsten/restaurant/rosin,2 MICHELIN Stars,110.88000000000001,178.08
Jante,"Marienstraße 116, Hanover, 30171, Germany",Hanover,"Creative, Modern Cuisine",9.7607489,52.3701441,4.95115E+12,https://guide.michelin.com/en/niedersachsen/hannover/restaurant/jante,2 MICHELIN Stars,162.4,179.20000000000002
AUGUST,"Johannes-Haag-Straße 14, Augsburg, 86153, Germany",Augsburg,Creative,10.9126019,48.3710103,4982135279,https://guide.michelin.com/en/bayern/augsburg/restaurant/august495065,2 MICHELIN Stars,200.48000000000002,235.20000000000002
Le Pavillon,"Dollenberg 3, Bad Peterstal, 77740, Germany",Bad Peterstal,Classic French,8.25063,48.45741,497806780,https://guide.michelin.com/en/baden-wurttemberg/bad-peterstal/restaurant/le-pavillon83378,2 MICHELIN Stars,160.16000000000003,211.68
Le Moissonnier,"Krefelder Straße 25, Cologne, 50670, Germany",Cologne,"Creative French, Classic Cuisine",6.952216,50.9510495,49221729479,https://guide.michelin.com/en/nordrhein-westfalen/koln/restaurant/le-moissonnier,2 MICHELIN Stars,123.20000000000002,184.8
LOUIS restaurant,"Prälat-Subtil-Ring 22, Saarlouis, 66740, Germany",Saarlouis,"Creative, French Contemporary",6.7552911,49.3172819,4.96832E+13,https://guide.michelin.com/en/saarland/saarlouis/restaurant/louis-restaurant,2 MICHELIN Stars,99.68,197.12
100/200 Kitchen,"Brandshofer Deich 68, Hamburg, 20539, Germany",Hamburg,"Creative, Modern Cuisine",10.0285764,53.5374323,4.94031E+11,https://guide.michelin.com/en/hamburg-region/hamburg/restaurant/100-200,2 MICHELIN Stars,161.28000000000003,161.28000000000003
bianc,"Am Sandtorkai 50, Hamburg, 20457, Germany",Hamburg,"Mediterranean Cuisine, Creative",9.9943521,53.5430154,4.94018E+11,https://guide.michelin.com/en/hamburg-region/hamburg/restaurant/bianc,2 MICHELIN Stars,212.8,212.8
Ox & Klee,"Im Zollhafen 18, Cologne, 50678, Germany",Cologne,"Modern Cuisine, Creative",6.9657432,50.9274173,4.92212E+12,https://guide.michelin.com/en/nordrhein-westfalen/koln/restaurant/ox-klee,2 MICHELIN Stars,162.4,257.6
Ophelia,"Seestraße 25, Constance, 78464, Germany",Constance,"Creative French, Classic Cuisine",9.1874594,47.6671426,4.97531E+11,https://guide.michelin.com/en/baden-wurttemberg/konstanz/restaurant/ophelia,2 MICHELIN Stars,212.8,268.8
EssZimmer,"Am Olympiapark 1, Munich, 80807, Germany",Munich,"Modern French, Creative",11.557409,48.1766707,4.98936E+12,https://guide.michelin.com/en/bayern/mnchen/restaurant/esszimmer236176,2 MICHELIN Stars,201.60000000000002,308.00000000000006
Horváth,"Paul-Lincke-Ufer 44a, Berlin, 10999, Germany",Berlin,Creative,13.4206073,52.4964176,4.93061E+11,https://guide.michelin.com/en/berlin-region/berlin/restaurant/horvath,2 MICHELIN Stars,162.4,207.20000000000002
Tantris,"Johann-Fichte-Straße 7, Munich, 80805, Germany",Munich,"Classic French, Classic Cuisine",11.588259,48.1697565,49893619590,https://guide.michelin.com/en/bayern/mnchen/restaurant/tantris-75719,2 MICHELIN Stars,168.00000000000003,330.40000000000003
Gustav,"Reuterweg 57, Frankfurt on the Main, 60323, Germany",Frankfurt on the Main,"Creative, Market Cuisine",8.6704255,50.1207676,4.96975E+11,https://guide.michelin.com/en/hessen/frankfurt-am-main/restaurant/gustav464093,2 MICHELIN Stars,134.4,184.8
Goldberg,"Guntram-Palm-Platz 1, Fellbach, 70734, Germany",Fellbach,"Modern Cuisine, International",9.2726039,48.8088952,4.97116E+12,https://guide.michelin.com/en/baden-wurttemberg/fellbach/restaurant/goldberg,2 MICHELIN Stars,145.60000000000002,212.8
Alexander Herrmann by Tobias Bätz,"Marktplatz 11, Wirsberg, 95339, Germany",Wirsberg,Creative,11.6069241,50.1073707,4992272080,https://guide.michelin.com/en/bayern/wirsberg/restaurant/alexander-herrmann-by-tobias-batz,2 MICHELIN Stars,211.68,245.28000000000003
ammolite - The Lighthouse Restaurant,"Peter-Thumb-Straße 6, Rust, 77977, Germany",Rust,"Modern Cuisine, Classic French",7.7251226,48.259724,4.97823E+11,https://guide.michelin.com/en/baden-wurttemberg/rust/restaurant/ammolite-the-lighthouse-restaurant,2 MICHELIN Stars,133.28,189.28000000000003
GästeHaus Klaus Erfort,"Mainzer Straße 95, Saarbrücken, 66121, Germany",Saarbrücken,Classic French,7.0076258,49.2295502,4.9682E+11,https://guide.michelin.com/en/saarland/saarbrucken/restaurant/gastehaus-klaus-erfort,2 MICHELIN Stars,164.64000000000001,252.00000000000003
Esplanade,"Nauwieserstraße 5, Saarbrücken, 66111, Germany",Saarbrücken,"Classic Cuisine, Mediterranean Cuisine",6.9996028,49.2349097,4.96818E+12,https://guide.michelin.com/en/saarland/saarbrucken/restaurant/esplanade539722,2 MICHELIN Stars,53.760000000000005,166.88000000000002
Alois - Dallmayr Fine Dining,"Dienerstraße 14, Munich, 80331, Germany",Munich,"Modern French, Creative",11.5771486,48.1384394,49892135100,https://guide.michelin.com/en/bayern/mnchen/restaurant/alois-dallmayr-fine-dining,2 MICHELIN Stars,87.36000000000001,196.00000000000003
FACIL,"Potsdamer Straße 3, Berlin, 10785, Germany",Berlin,"Creative, Contemporary",13.3737243,52.5090305,4.93059E+12,https://guide.michelin.com/en/berlin-region/berlin/restaurant/facil,2 MICHELIN Stars,69.44000000000001,244.16000000000003
Hirschen,"Hauptstraße 69, Sulzburg, 79295, Germany",Sulzburg,Classic French,7.7088806,47.8404612,4976348208,https://guide.michelin.com/en/baden-wurttemberg/sulzburg/restaurant/hirschen78032,2 MICHELIN Stars,227.36,330.40000000000003
Le Cerf,"Kärcherstraße 11, Zweiflingen, 74639, Germany",Zweiflingen,Classic French,9.5258355,49.2436455,49794160870,https://guide.michelin.com/en/baden-wurttemberg/zweiflingen/restaurant/le-cerf83229,2 MICHELIN Stars,120.96000000000001,199.36
Meierei Dirk Luther,"Uferstraße 1, Glücksburg, 24960, Germany",Glücksburg,"Classic Cuisine, Modern Cuisine",9.4999203,54.8225486,4.94632E+12,https://guide.michelin.com/en/schleswig-holstein/glcksburg/restaurant/meierei-dirk-luther,2 MICHELIN Stars,221.76000000000002,244.16000000000003
PURS,"Steinweg 30, Andernach, 56626, Germany",Andernach,Modern Cuisine,7.3973426,50.4390106,4.92633E+12,https://guide.michelin.com/en/rheinland-pfalz/andernach/restaurant/purs,2 MICHELIN Stars,218.40000000000003,274.40000000000003
Courtier,"Parkallee 1, Wangels, 23758, Germany",Wangels,"Creative, Classic Cuisine",10.7656888,54.3025337,49438292620,https://guide.michelin.com/en/schleswig-holstein/wangels/restaurant/courtier,2 MICHELIN Stars,189.28000000000003,245.28000000000003
Atelier,"Promenadeplatz 2, Munich, 80331, Germany",Munich,Creative French,11.5735681,48.1402487,498921200,https://guide.michelin.com/en/bayern/mnchen/restaurant/atelier-1198719,2 MICHELIN Stars,229.60000000000002,263.20000000000005
Essigbrätlein,"Weinmarkt 3, Nuremberg, 90403, Germany",Nuremberg,"Innovative, Market Cuisine",11.0747775,49.4551869,49911225131,https://guide.michelin.com/en/bayern/nurnberg/restaurant/essigbratlein,2 MICHELIN Stars,112.00000000000001,201.60000000000002
Lafleur,"Palmengartenstraße 11, Frankfurt on the Main, 60325, Germany",Frankfurt on the Main,"Modern French, Creative",8.6565825,50.1214911,4.9699E+11,https://guide.michelin.com/en/hessen/frankfurt-am-main/restaurant/lafleur,2 MICHELIN Stars,229.60000000000002,252.00000000000003
Liath,"Blackrock Market, 19a Main Street, Blackrock, A94 V0D8, Ireland",Blackrock,Creative,-6.1783698,53.3013717,35312123676,https://guide.michelin.com/en/dun-laoghaire-rathdown/blackrock/restaurant/Liath,2 MICHELIN Stars,72.80000000000001,145.60000000000002
Aimsir,"Cliff at Lyons, Lyons Road, Celbridge, W23 HXH3, Ireland",Celbridge,Modern Cuisine,-6.5582175,53.2990793,35316303500,https://guide.michelin.com/en/kildare/celbridge/restaurant/aimsir,2 MICHELIN Stars,235.20000000000002,235.20000000000002
Patrick Guilbaud,"21 Upper Merrion Street, Dublin City, D02 KF79, Ireland",Dublin City,Modern French,-6.2529387,53.338467,35316764192,https://guide.michelin.com/en/dublin/dublin/restaurant/patrick-guilbaud,2 MICHELIN Stars,89.60000000000001,252.00000000000003
Chapter One by Mickael Viljanen,"18-19 Parnell Square North, Rotunda, Dublin City, D01 T3V8, Ireland",Dublin City,Modern Cuisine,-6.2639708,53.354379,35318732266,https://guide.michelin.com/en/dublin/dublin/restaurant/chapter-one-by-mickael-viljanen,2 MICHELIN Stars,72.80000000000001,190.4
Ynyshir,"Eglwysfach, Machynlleth, SY20 8TA, United Kingdom",Machynlleth,Creative,-3.9439501,52.5445284,4.41655E+11,https://guide.michelin.com/en/ceredigion/machynlleth/restaurant/ynyshir,2 MICHELIN Stars,399.0,399.0
Raby Hunt,"Summerhouse, DL2 3UD, United Kingdom",Summerhouse,Modern British,-1.6893656,54.5665058,4.41325E+11,https://guide.michelin.com/en/darlington-region/summerhouse/restaurant/raby-hunt,2 MICHELIN Stars,325.85,325.85
Andrew Fairlie at Gleneagles,"Auchterarder, PH3 1NF, United Kingdom",Auchterarder,Modern French,-3.7517344,56.2832316,4.41765E+11,https://guide.michelin.com/en/perth-and-kinross/auchterarder/restaurant/andrew-fairlie-at-gleneagles,2 MICHELIN Stars,152.95000000000002,172.9
"Le Manoir aux Quat' Saisons, a Belmond Hotel","Church Road, Great Milton, OX44 7PD, United Kingdom",Great Milton,French,-1.0915663,51.7169058,4.41844E+11,https://guide.michelin.com/en/oxfordshire/great-milton/restaurant/belmond-le-manoir-aux-quat-saisons,2 MICHELIN Stars,232.75,292.6
Restaurant Sat Bains,"Lenton Lane, Nottingham, NG7 2SA, United Kingdom",Nottingham,Creative,-1.1676041,52.9251069,4.4116E+11,https://guide.michelin.com/en/nottingham-region/nottingham/restaurant/restaurant-sat-bains,2 MICHELIN Stars,206.15,259.35
Midsummer House,"Midsummer Common, Cambridge, CB4 1HA, United Kingdom",Cambridge,Creative,0.1284006,52.2120545,4.41223E+11,https://guide.michelin.com/en/cambridgeshire/cambridge/restaurant/midsummer-house,2 MICHELIN Stars,172.9,332.5
Moor Hall,"Prescot Road, Aughton, L39 6RT, United Kingdom",Aughton,Creative British,-2.8919183,53.5423365,4.41696E+11,https://guide.michelin.com/en/lancashire/aughton/restaurant/moor-hall,2 MICHELIN Stars,126.35000000000001,259.35
Hand and Flowers,"126 West Street, Marlow, SL7 2BP, United Kingdom",Marlow,Modern British,-0.7836567,51.5696616,4.41628E+11,https://guide.michelin.com/en/buckinghamshire/marlow/restaurant/hand-and-flowers,2 MICHELIN Stars,202.16000000000003,202.16000000000003
Le Gavroche,"43 Upper Brook Street, London, W1K 7QR, United Kingdom",London,French,-0.1552575,51.5112997,4.42074E+11,https://guide.michelin.com/en/greater-london/london/restaurant/le-gavroche,2 MICHELIN Stars,164.92000000000002,236.74
La Dame de Pic London,"10 Trinity Square, London, EC3N 4AJ, United Kingdom",London,Modern French,-0.0779535,51.5101629,4.42033E+11,https://guide.michelin.com/en/greater-london/london/restaurant/la-dame-de-pic,2 MICHELIN Stars,146.3,259.35
Da Terra,"8 Patriot Square, London, E2 9NF, United Kingdom",London,Creative,-0.05607,51.530411,4.42071E+11,https://guide.michelin.com/en/greater-london/london/restaurant/da-terra,2 MICHELIN Stars,119.7,232.75
Ikoyi,"1 St. James's Market, London, SW1Y 4AH, United Kingdom",London,Creative,-0.1334203,51.5091612,4.42036E+11,https://guide.michelin.com/en/greater-london/london/restaurant/ikoyi,2 MICHELIN Stars,79.80000000000001,226.10000000000002
Story,"199 Tooley Street, London, SE1 2JX, United Kingdom",London,Modern Cuisine,-0.077787,51.5028085,4.42072E+11,https://guide.michelin.com/en/greater-london/london/restaurant/story,2 MICHELIN Stars,172.9,246.05
Dinner by Heston Blumenthal,"66 Knightsbridge, London, SW1X 7LA, United Kingdom",London,Traditional British,-0.1599147,51.5021106,4.42072E+11,https://guide.michelin.com/en/greater-london/london/restaurant/dinner-by-heston-blumenthal,2 MICHELIN Stars,159.60000000000002,159.60000000000002
A. Wong,"70 Wilton Road, London, SW1V 1DE, United Kingdom",London,Chinese,-0.1406558,51.4930091,4.42078E+11,https://guide.michelin.com/en/greater-london/london/restaurant/a-wong,2 MICHELIN Stars,159.60000000000002,212.8
The Clove Club,"Shoreditch Town Hall, 380 Old Street, London, EC1V 9LT, United Kingdom",London,Creative,-0.0793371,51.5271054,4.42077E+11,https://guide.michelin.com/en/greater-london/london/restaurant/the-clove-club,2 MICHELIN Stars,86.45,192.85000000000002
Kitchen Table,"70 Charlotte Street, London, W1T 4QG, United Kingdom",London,Modern Cuisine,-0.13647,51.5203616,4.42076E+11,https://guide.michelin.com/en/greater-london/london/restaurant/kitchen-table-at-bubbledogs,2 MICHELIN Stars,332.5,332.5
Claude Bosi at Bibendum,"Michelin House, 81 Fulham Road, London, SW3 6RD, United Kingdom",London,French,-0.1688013,51.4933623,4.42076E+11,https://guide.michelin.com/en/greater-london/london/restaurant/claude-bosi-at-bibendum,2 MICHELIN Stars,152.95000000000002,259.35
SENNS.Restaurant,"Söllheimerstrasse 16, Salzburg, 5020, Austria",Salzburg,Creative,13.0634487,47.8360718,4.36645E+11,https://guide.michelin.com/en/salzburg-region/salzburg/restaurant/senns-restaurant,2 MICHELIN Stars,95.2,229.60000000000002
Ikarus,"Wilhelm-Spazier-Straße 7a, Salzburg, 5020, Austria",Salzburg,Creative,13.007903,47.7935605,4366221970,https://guide.michelin.com/en/salzburg-region/salzburg/restaurant/ikarus,2 MICHELIN Stars,156.8,235.20000000000002
Silvio Nickol Gourmet Restaurant,"Coburgbastei 4, Vienna, 1010, Austria",Vienna,Modern Cuisine,16.3770073,48.2058003,43151818130,https://guide.michelin.com/en/vienna/wien/restaurant/silvio-nickol-gourmet-restaurant,2 MICHELIN Stars,179.20000000000002,201.60000000000002
Steirereck im Stadtpark,"Am Heumarkt 2a, Vienna, 1030, Austria",Vienna,"Creative, Contemporary",16.3815669,48.2043967,4317133168,https://guide.michelin.com/en/vienna/wien/restaurant/steirereck-im-stadtpark,2 MICHELIN Stars,151.20000000000002,207.20000000000002
Mraz & Sohn,"Wallensteinstraße 59, Vienna, 1200, Austria",Vienna,Creative,16.3762794,48.2313246,4313304594,https://guide.michelin.com/en/vienna/wien/restaurant/mraz-sohn,2 MICHELIN Stars,162.4,162.4
Konstantin Filippou,"Dominikanerbastei 17, Vienna, 1010, Austria",Vienna,Modern Cuisine,16.3797942,48.2107279,4315122229,https://guide.michelin.com/en/vienna/wien/restaurant/konstantin-filippou,2 MICHELIN Stars,62.720000000000006,211.68
Sichuan Moon,"Avenida da Nave Desportiva, Macau",Macau,Sichuan,113.5723245,22.1473845,85388893663,https://guide.michelin.com/en/macau-region/macau/restaurant/sichuan-moon,2 MICHELIN Stars,104.47337539432174,168.17868367760263
Mizumi (Macau),"Rua Cidade de Sintra, NAPE, Macau",Macau,Japanese,113.5449903,22.1886966,85389863663,https://guide.michelin.com/en/macau-region/macau/restaurant/mizumi-macau,2 MICHELIN Stars,132.0,168.17868367760263
Alain Ducasse at Morpheus,"Estrada do Istmo, Macau",Macau,French Contemporary,113.5669767,22.1501736,85388683432,https://guide.michelin.com/en/macau-region/macau/restaurant/alain-ducasse-at-morpheus,2 MICHELIN Stars,104.47337539432174,168.17868367760263
Feng Wei Ju,"Avenida da Amizade, Macau",Macau,"Hunanese, Sichuan",113.5479285,22.189952,85382908668,https://guide.michelin.com/en/macau-region/macau/restaurant/feng-wei-ju,2 MICHELIN Stars,120.0,120.0
Wing Lei,"Rua Cidade de Sintra, NAPE, Macau",Macau,Cantonese,113.54578,22.188028,85389863663,https://guide.michelin.com/en/macau-region/macau/restaurant/wing-lei,2 MICHELIN Stars,104.47337539432174,168.17868367760263
L'Envol,"1 Harbour Drive, Hong Kong",Hong Kong,French Contemporary,114.1761315,22.2799005,85221386818,https://guide.michelin.com/en/hong-kong-region/hong-kong/restaurant/l-envol,2 MICHELIN Stars,102.44,168.17868367760263
Bo Innovation,"60 Johnston Road, Hong Kong",Hong Kong,Innovative,114.1710473,22.2763009,85228508371,https://guide.michelin.com/en/hong-kong-region/hong-kong/restaurant/bo-innovation,2 MICHELIN Stars,88.4,168.17868367760263
Sun Tung Lok,"132 Nathan Road, Hong Kong",Hong Kong,Cantonese,114.17221,22.30099,85221521417,https://guide.michelin.com/en/hong-kong-region/hong-kong/restaurant/sun-tung-lok,2 MICHELIN Stars,38.74,168.17868367760263
Écriture,"80 Queen's Road Central, Hong Kong",Hong Kong,French Contemporary,114.1552862,22.2831268,85227955996,https://guide.michelin.com/en/hong-kong-region/hong-kong/restaurant/ecriture,2 MICHELIN Stars,128.44,168.17868367760263
Octavium,"22 Des Voeux Road Central, Hong Kong",Hong Kong,Italian,114.1571177,22.2825493,85221119395,https://guide.michelin.com/en/hong-kong-region/hong-kong/restaurant/octavium,2 MICHELIN Stars,72.8,168.17868367760263
Ying Jee Club,"41 Connaught Road Central, Hong Kong",Hong Kong,Cantonese,114.156654,22.284338,85228016882,https://guide.michelin.com/en/hong-kong-region/hong-kong/restaurant/ying-jee-club,2 MICHELIN Stars,64.74000000000001,168.17868367760263
Amber,"15 Queen's Road Central, Hong Kong",Hong Kong,French Contemporary,114.1577065,22.2805311,85221320066,https://guide.michelin.com/en/hong-kong-region/hong-kong/restaurant/amber569032,2 MICHELIN Stars,103.74000000000001,168.17868367760263
Tin Lung Heen,"1 Austin Road West, Hong Kong",Hong Kong,Cantonese,114.1598747,22.3032802,85222632150,https://guide.michelin.com/en/hong-kong-region/hong-kong/restaurant/tin-lung-heen,2 MICHELIN Stars,104.47337539432174,168.17868367760263
Yan Toh Heen,"18 Salisbury Road, Hong Kong",Hong Kong,Cantonese,114.17395,22.293337,85223132243,https://guide.michelin.com/en/hong-kong-region/hong-kong/restaurant/yan-toh-heen,2 MICHELIN Stars,64.74000000000001,168.17868367760263
Tate,"210 Hollywood Road, Hong Kong",Hong Kong,Innovative,114.1477192,22.2855757,85225552172,https://guide.michelin.com/en/hong-kong-region/hong-kong/restaurant/tate,2 MICHELIN Stars,104.47337539432174,168.17868367760263
Ta Vie,"21 Stanley Street, Hong Kong",Hong Kong,Innovative,114.15529,22.282766,85226686488,https://guide.michelin.com/en/hong-kong-region/hong-kong/restaurant/ta-vie,2 MICHELIN Stars,104.47337539432174,168.17868367760263
Arbor,"80 Queen's Road Central, Hong Kong",Hong Kong,Innovative,114.15542,22.283146,85231858388,https://guide.michelin.com/en/hong-kong-region/hong-kong/restaurant/arbor,2 MICHELIN Stars,89.44,168.17868367760263
Sorn,"56 Soi Sukhumvit 26, Khlong Tan, Bangkok, 10110, Thailand",Bangkok,Southern Thai,100.56848,13.723242,66990811119,https://guide.michelin.com/en/bangkok-region/bangkok/restaurant/sorn,2 MICHELIN Stars,104.47337539432174,168.17868367760263
Chef's Table,"1055 Si Lom Road, Si Lom, Bangkok, 10500, Thailand",Bangkok,French Contemporary,100.5171696,13.7215006,6626249555,https://guide.michelin.com/en/bangkok-region/bangkok/restaurant/chef-s-table1184372,2 MICHELIN Stars,104.47337539432174,168.17868367760263
R-Haan,"131 Soi Sukhumvit 53, Khlong Tan Nuea, Bangkok, 10110, Thailand",Bangkok,Thai,100.57972,13.731805,6620590433,https://guide.michelin.com/en/bangkok-region/bangkok/restaurant/r-haan,2 MICHELIN Stars,104.47337539432174,168.17868367760263
Mezzaluna,"1055 Si Lom Road, Si Lom, Bangkok, 10500, Thailand",Bangkok,French Contemporary,100.51691,13.722148,6626249555,https://guide.michelin.com/en/bangkok-region/bangkok/restaurant/mezzaluna,2 MICHELIN Stars,104.47337539432174,168.17868367760263
Sühring,"10 Soi Yen Akat 3, Chong Nonsi, Bangkok, 10120, Thailand",Bangkok,European Contemporary,100.5457264,13.7108084,6621072777,https://guide.michelin.com/en/bangkok-region/bangkok/restaurant/suhring,2 MICHELIN Stars,104.47337539432174,168.17868367760263
Le Normandie,"48 Soi Charoen Krung 40, Bangkok, 10500, Thailand",Bangkok,French Contemporary,100.5138214,13.7238479,6626599000,https://guide.michelin.com/en/bangkok-region/bangkok/restaurant/le-normandie,2 MICHELIN Stars,104.47337539432174,168.17868367760263
Casa de Chá da Boa Nova,"Avenida da Liberdade, Leça da Palmeira, 4450-705, Portugal",Leça da Palmeira,Seafood,-8.7147233,41.2027411,3.5123E+11,https://guide.michelin.com/en/porto-region/lea-da-palmeira/restaurant/casa-de-cha-da-boa-nova,2 MICHELIN Stars,123.20000000000002,235.20000000000002
Ocean,"Rua Anneliese Pohl, Porches, 8400-450, Portugal",Porches,Creative,-8.3792041,37.1008268,3.51282E+11,https://guide.michelin.com/en/faro-region/porches/restaurant/ocean216602,2 MICHELIN Stars,235.20000000000002,235.20000000000002
The Yeatman,"Rua do Choupelo, Vila Nova de Gaia, 4400-088, Portugal",Vila Nova de Gaia,Creative,-8.6133869,41.1336845,3.5122E+11,https://guide.michelin.com/en/porto-region/vila-nova-de-gaia/restaurant/the-yeatman,2 MICHELIN Stars,201.60000000000002,201.60000000000002
Il Gallo d'Oro,"Estrada Monumental 147, Funchal, 9004-532, Portugal",Funchal,Modern Cuisine,-16.9266478,32.6382988,3.51292E+11,https://guide.michelin.com/en/ilha-da-madeira/funchal/restaurant/il-gallo-d-oro,2 MICHELIN Stars,145.60000000000002,224.00000000000003
Vila Joya,"Estrada da Galé, Albufeira, 8200-416, Portugal",Albufeira,Creative,-8.31367,37.08059,3.5129E+11,https://guide.michelin.com/en/faro-region/albufeira/restaurant/vila-joya,2 MICHELIN Stars,173.60000000000002,218.40000000000003
Belcanto,"Rua Serpa Pinto 10, Lisbon, 1200-410, Portugal",Lisbon,Creative,-9.1415741,38.7104102,3.51213E+11,https://guide.michelin.com/en/lisboa-region/lisboa/restaurant/belcanto,2 MICHELIN Stars,156.8,218.40000000000003
Alma,"Rua Anchieta 15, Lisbon, 1200-023, Portugal",Lisbon,Creative,-9.1411358,38.7101662,3.51213E+11,https://guide.michelin.com/en/lisboa-region/lisboa/restaurant/alma495726,2 MICHELIN Stars,112.00000000000001,162.4
El Molino de Urdániz,"Carretera N 135, Urdaitz, 31698, Spain",Urdaitz,Creative,-1.533913,42.909132,34948304109,https://guide.michelin.com/en/comunidad-foral-de-navarra/urdaitz/restaurant/el-molino-de-urdaniz,2 MICHELIN Stars,134.4,156.8
Casa Marcial,"La Salgar, La Salgar, 33549, Spain",La Salgar,Creative,-5.1928818,43.4183926,34985840991,https://guide.michelin.com/en/principado-de-asturias/la-salgar/restaurant/casa-marcial,2 MICHELIN Stars,100.80000000000001,201.60000000000002
Cabaña Buenavista,"Urbanización Buenavista, El Palmar, 30120, Spain",El Palmar,Creative,-1.163767,37.92464,34968889006,https://guide.michelin.com/en/region-de-murcia/region-de-murcia-el-palmar/restaurant/cabana-buenavista,2 MICHELIN Stars,117.60000000000001,156.8
Maralba,"Violeta Parra 5, Almansa, 02640, Spain",Almansa,"Creative, Castilian",-1.0910555,38.8696375,34967312326,https://guide.michelin.com/en/castilla-la-mancha/almansa/restaurant/maralba,2 MICHELIN Stars,62.720000000000006,107.52000000000001
BonAmb,"Carretera de Benitachell 100, Xàbia, 03730, Spain",Xàbia,Creative,0.148496,38.7701412,34965084440,https://guide.michelin.com/en/comunidad-valenciana/xbia/restaurant/bonamb,2 MICHELIN Stars,100.80000000000001,179.20000000000002
Les Cols,"Carretera de la Canya, Olot, 17800, Spain",Olot,Creative,2.5009,42.1946503,34972269209,https://guide.michelin.com/en/catalunya/olot/restaurant/les-cols,2 MICHELIN Stars,173.60000000000002,173.60000000000002
M.B,"Carretera TF 47, Guía de Isora, 38687, Spain",Guía de Isora,Creative,-16.799017,28.171041,34922126000,https://guide.michelin.com/en/canarias/gua-de-isora/restaurant/m-b,2 MICHELIN Stars,151.20000000000002,184.8
Voro,"Urbanización Atalaya de Canyamel, Canyamel, 07589, Spain",Canyamel,Modern Cuisine,3.4389026,39.6696986,34646896826,https://guide.michelin.com/en/islas-baleares/canyamel/restaurant/voro,2 MICHELIN Stars,123.20000000000002,156.8
Mugaritz,"Aldura Aldea 20 - Otzazulueta Baserria, Errenteria, 20100, Spain",Errenteria,Creative,-1.9171152,43.2722067,34943522455,https://guide.michelin.com/en/pais-vasco/errenteria/restaurant/mugaritz,2 MICHELIN Stars,258.72,258.72
Culler de Pau,"Reboredo 73, O Grove, 36980, Spain",O Grove,Creative,-8.8957637,42.4752854,34986732275,https://guide.michelin.com/en/galicia/o-grove/restaurant/culler-de-pau,2 MICHELIN Stars,106.4,168.00000000000003
Bo.TiC,"Avenida Costa Brava 6, Corçà, 17121, Spain",Corçà,Creative,3.0160382,41.9878977,34972630869,https://guide.michelin.com/en/catalunya/corca/restaurant/bo-tic,2 MICHELIN Stars,145.60000000000002,201.60000000000002
Miramar,"Passeig Marítim 7, Llançà, 17490, Spain",Llançà,Creative,3.1601265,42.3710822,34972380132,https://guide.michelin.com/en/catalunya/llan/restaurant/miramar,2 MICHELIN Stars,168.00000000000003,218.40000000000003
Bardal,"José Aparicio 1, Ronda, 29400, Spain",Ronda,Creative,-5.16655,36.74161,34951489828,https://guide.michelin.com/en/andalucia/ronda/restaurant/bardal,2 MICHELIN Stars,168.00000000000003,190.4
El Portal de Echaurren,"Padre José García 19, Ezcaray, 26280, Spain",Ezcaray,"Creative, Modern Cuisine",-3.0144146,42.3257846,34941354047,https://guide.michelin.com/en/la-rioja/ezcaray/restaurant/el-portal,2 MICHELIN Stars,168.00000000000003,184.8
L'Escaleta,"Pujada Estació del Nord 205, Cocentaina, 03824, Spain",Cocentaina,"Creative, Mediterranean Cuisine",-0.4451945,38.7570756,34965592100,https://guide.michelin.com/en/comunidad-valenciana/cocentaina/restaurant/l-escaleta,2 MICHELIN Stars,95.2,162.4
Iván Cerdeño,"Cigarral del Ángel, Toledo, 45004, Spain",Toledo,Modern Cuisine,-4.0462052,39.8619154,34925223674,https://guide.michelin.com/en/castilla-la-mancha/es-toledo/restaurant/ivan-cerdeno,2 MICHELIN Stars,61.60000000000001,162.4
Ramón Freixa Madrid,"Claudio Coello 67, Madrid, 28001, Spain",Madrid,Creative,-3.6861735,40.4284323,34917818262,https://guide.michelin.com/en/comunidad-de-madrid/madrid/restaurant/ramon-freixa-madrid,2 MICHELIN Stars,100.80000000000001,184.8
Coque,"Marqués de Riscal 11, Madrid, 28010, Spain",Madrid,Creative,-3.690676,40.430643,34916040202,https://guide.michelin.com/en/comunidad-de-madrid/madrid/restaurant/coque,2 MICHELIN Stars,221.76000000000002,257.6
Smoked Room,"Paseo de la Castellana 57, Madrid, 28046, Spain",Madrid,Contemporary,-3.691358,40.4385556,34911086277,https://guide.michelin.com/en/comunidad-de-madrid/madrid/restaurant/smoked-room,2 MICHELIN Stars,207.20000000000002,207.20000000000002
DSTAgE,"Regueros 8, Madrid, 28004, Spain",Madrid,Creative,-3.6962925,40.4246847,34917021586,https://guide.michelin.com/en/comunidad-de-madrid/madrid/restaurant/dstage,2 MICHELIN Stars,162.4,190.4
Paco Roncero,"Alcalá 15, Madrid, 28014, Spain",Madrid,Creative,-3.7002477,40.4176733,34915321275,https://guide.michelin.com/en/comunidad-de-madrid/madrid/restaurant/la-terraza-del-casino,2 MICHELIN Stars,106.4,235.20000000000002
Atrio,"Plaza San Mateo 1, Cáceres, 10003, Spain",Cáceres,Creative,-6.3713456,39.4730183,34927242928,https://guide.michelin.com/en/extremadura/cceres/restaurant/atrio,2 MICHELIN Stars,218.40000000000003,218.40000000000003
Ricard Camarena,"Avenida Burjassot 54, Valencia, 46009, Spain",Valencia,Creative,-0.3852003,39.48512,34963355418,https://guide.michelin.com/en/comunidad-valenciana/valencia/restaurant/ricard-camarena,2 MICHELIN Stars,184.8,218.40000000000003
El Poblet,"Correos 8-1º, Valencia, 46002, Spain",Valencia,Creative,-0.3745175,39.469784,34961111106,https://guide.michelin.com/en/comunidad-valenciana/valencia/restaurant/el-poblet,2 MICHELIN Stars,109.76,179.20000000000002
Noor,"Pablo Ruiz Picasso 6, Córdoba, 14014, Spain",Córdoba,Creative,-4.7583913,37.8897516,34957964055,https://guide.michelin.com/en/andalucia/cordoba/restaurant/noor,2 MICHELIN Stars,106.4,212.8
Amelia by Paulo Airaudo,"Zubieta 26, Donostia / San Sebastián, 20007, Spain",Donostia / San Sebastián,Creative,-1.9859469,43.3168594,34943845647,https://guide.michelin.com/en/pais-vasco/es-donostia-san-sebastian/restaurant/amelia-1191398,2 MICHELIN Stars,190.4,190.4
Skina,"Aduar 12, Marbella, 29601, Spain",Marbella,Modern Cuisine,-4.8857086,36.5114458,34952765277,https://guide.michelin.com/en/andalucia/marbella/restaurant/skina,2 MICHELIN Stars,184.8,211.68
Disfrutar,"Villarroel 163, Barcelona, 08036, Spain",Barcelona,Creative,2.1530369,41.3879756,34933486896,https://guide.michelin.com/en/catalunya/barcelona/restaurant/disfrutar,2 MICHELIN Stars,235.20000000000002,235.20000000000002
Cinc Sentits,"Entença 60, Barcelona, 08015, Spain",Barcelona,Creative,2.1521767,41.3784999,34933239490,https://guide.michelin.com/en/catalunya/barcelona/restaurant/cinc-sentits,2 MICHELIN Stars,133.28,155.68
Moments,"Passeig de Gràcia 38-40, Barcelona, 08007, Spain",Barcelona,Creative,2.1664829,41.3911693,34931518781,https://guide.michelin.com/en/catalunya/barcelona/restaurant/moments,2 MICHELIN Stars,168.00000000000003,211.68
Enoteca Paco Pérez,"Marina 19, Barcelona, 08005, Spain",Barcelona,Modern Cuisine,2.1969283,41.3867832,34934838108,https://guide.michelin.com/en/catalunya/barcelona/restaurant/enoteca204150,2 MICHELIN Stars,196.00000000000003,196.00000000000003
Cocina Hermanos Torres,"Taquígraf Serra 20, Barcelona, 08029, Spain",Barcelona,Creative,2.1400168,41.3865273,34934100020,https://guide.michelin.com/en/catalunya/barcelona/restaurant/cocina-hermanos-torres,2 MICHELIN Stars,107.52000000000001,218.40000000000003
Angle,"Aragó 214, Barcelona, 08011, Spain",Barcelona,Modern Cuisine,2.1597015,41.3882671,34932167777,https://guide.michelin.com/en/catalunya/barcelona/restaurant/angle,2 MICHELIN Stars,207.20000000000002,207.20000000000002
BEIGE Alain Ducasse,"3-5-3 Ginza, Chuo-ku, Tokyo, 104-0061, Japan",Tokyo,French,139.766511,35.67308,-9846,https://guide.michelin.com/en/tokyo-region/tokyo/restaurant/beige-alain-ducasse,2 MICHELIN Stars,104.47337539432174,168.17868367760263
Sushi Kanesaka,"8-10-3 Ginza, Chuo-ku, Tokyo, 104-0061, Japan",Tokyo,Sushi,139.7626744,35.6679243,-9166,https://guide.michelin.com/en/tokyo-region/tokyo/restaurant/sushi-kanesaka,2 MICHELIN Stars,104.47337539432174,168.17868367760263
Jingumae Higuchi,"2-19-12 Jingumae, Shibuya-ku, Tokyo, 150-0001, Japan",Tokyo,Japanese,139.710114,35.673456,-9627,https://guide.michelin.com/en/tokyo-region/tokyo/restaurant/higuchi,2 MICHELIN Stars,104.47337539432174,168.17868367760263
Jushu,"2-16-1 Nishiazabu, Minato-ku, Tokyo, 106-0031, Japan",Tokyo,Japanese,139.720321,35.661831,-10781,https://guide.michelin.com/en/tokyo-region/tokyo/restaurant/jushu,2 MICHELIN Stars,104.47337539432174,168.17868367760263
ASAHINA Gastronome,"1-4 Nihombashikabutocho, Chuo-ku, Tokyo, 103-0026, Japan",Tokyo,French,139.779307,35.682829,-14634,https://guide.michelin.com/en/tokyo-region/tokyo/restaurant/asahina-gastronome,2 MICHELIN Stars,104.47337539432174,168.17868367760263
Daigo,"2-3-1 Atago, Minato-ku, Tokyo, 105-0002, Japan",Tokyo,Shojin,139.749184,35.66344,-3429,https://guide.michelin.com/en/tokyo-region/tokyo/restaurant/daigo,2 MICHELIN Stars,104.47337539432174,168.17868367760263
HOMMAGE,"4-10-5 Asakusa, Taito-ku, Tokyo, 111-0032, Japan",Tokyo,French,139.79699,35.718485,-4613,https://guide.michelin.com/en/tokyo-region/tokyo/restaurant/hommage,2 MICHELIN Stars,104.47337539432174,168.17868367760263
PRISMA,"6-4-6 Minamiaoyama, Minato-ku, Tokyo, 107-0062, Japan",Tokyo,Italian,139.7166299,35.66158,-5643,https://guide.michelin.com/en/tokyo-region/tokyo/restaurant/prisma-1194160,2 MICHELIN Stars,104.47337539432174,168.17868367760263
Ginza Fukuju,"8-8-19 Ginza, Chuo-ku, Tokyo, 104-0061, Japan",Tokyo,Japanese,139.7615306,35.6685588,-11354,https://guide.michelin.com/en/tokyo-region/tokyo/restaurant/ginza-fukuju,2 MICHELIN Stars,104.47337539432174,168.17868367760263
Tempura Kondo,"5-5-13 Ginza, Chuo-ku, Tokyo, 104-0061, Japan",Tokyo,Tempura,139.763104,35.671184,-5678,https://guide.michelin.com/en/tokyo-region/tokyo/restaurant/tempura-kondo,2 MICHELIN Stars,104.47337539432174,168.17868367760263
Higashiazabu Amamoto,"1-7-9 Higashiazabu, Minato-ku, Tokyo, 106-0044, Japan",Tokyo,Sushi,139.7435461,35.6573212,undefined,https://guide.michelin.com/en/tokyo-region/tokyo/restaurant/higashiazabu-amamoto,2 MICHELIN Stars,104.47337539432174,168.17868367760263
LA TABLE de Joël Robuchon,"1-13-1 Mita, Meguro-ku, Tokyo, 153-0062, Japan",Tokyo,French,139.7144835,35.6418703,-5949,https://guide.michelin.com/en/tokyo-region/tokyo/restaurant/la-table-de-joel-robuchon,2 MICHELIN Stars,104.47337539432174,168.17868367760263
Den,"2-3-18 Jingumae, Shibuya-ku, Tokyo, 150-0001, Japan",Tokyo,Japanese,139.712661,35.6731782,-11075,https://guide.michelin.com/en/tokyo-region/tokyo/restaurant/den,2 MICHELIN Stars,104.47337539432174,168.17868367760263
Seisoka,"4-2-34 Minamiazabu, Minato-ku, Tokyo, 106-0047, Japan",Tokyo,Japanese,139.724008,35.64751,-5763,https://guide.michelin.com/en/tokyo-region/tokyo/restaurant/seisoka,2 MICHELIN Stars,104.47337539432174,168.17868367760263
L'ATELIER de Joël Robuchon,"6-10-1 Roppongi, Minato-ku, Tokyo, 106-0032, Japan",Tokyo,French,139.729046,35.6604,-12459,https://guide.michelin.com/en/tokyo-region/tokyo/restaurant/l-atelier-de-joel-robuchon-1194216,2 MICHELIN Stars,104.47337539432174,168.17868367760263
Nabeno-Ism,"2-1-17 Komagata, Taito-ku, Tokyo, 111-0043, Japan",Tokyo,French,139.7953796,35.7068315,-8489,https://guide.michelin.com/en/tokyo-region/tokyo/restaurant/nabeno-ism,2 MICHELIN Stars,104.47337539432174,168.17868367760263
Nihombashi-kakigaracho Sugita,"1-33-6 Nihombashi-kakigaracho, Chuo-ku, Tokyo, 103-0014, Japan",Tokyo,Sushi,139.7849134,35.6819341,-6711,https://guide.michelin.com/en/tokyo-region/tokyo/restaurant/nihombashi-kakigaracho-sugita,2 MICHELIN Stars,104.47337539432174,168.17868367760263
Ryuzu,"4-2-35 Roppongi, Minato-ku, Tokyo, 106-0032, Japan",Tokyo,French,139.733371,35.664729,-9193,https://guide.michelin.com/en/tokyo-region/tokyo/restaurant/ryuzu,2 MICHELIN Stars,104.47337539432174,168.17868367760263
Crony,"1-20-3 Higashiazabu, Minato-ku, Tokyo, 106-0044, Japan",Tokyo,French,139.743318,35.655765,-10984,https://guide.michelin.com/en/tokyo-region/tokyo/restaurant/crony-1194937,2 MICHELIN Stars,104.47337539432174,168.17868367760263
Florilège,"2-5-4 Jingumae, Shibuya-ku, Tokyo, 150-0001, Japan",Tokyo,French,139.71369,35.672277,-6505,https://guide.michelin.com/en/tokyo-region/tokyo/restaurant/florilege,2 MICHELIN Stars,104.47337539432174,168.17868367760263
Usukifugu Yamadaya,"4-11-14 Nishiazabu, Minato-ku, Tokyo, 106-0031, Japan",Tokyo,Fugu / Pufferfish,139.7226951,35.658213,-8187,https://guide.michelin.com/en/tokyo-region/tokyo/restaurant/usukifugu-yamadaya,2 MICHELIN Stars,104.47337539432174,168.17868367760263
Kobikicho Tomoki,"4-12-2 Ginza, Chuo-ku, Tokyo, 104-0061, Japan",Tokyo,Sushi,139.768149,35.670064,-8138,https://guide.michelin.com/en/tokyo-region/tokyo/restaurant/kobikicho-tomoki,2 MICHELIN Stars,104.47337539432174,168.17868367760263
Seizan,"2-17-29 Mita, Minato-ku, Tokyo, 108-0073, Japan",Tokyo,Japanese,139.739951,35.647424,-10958,https://guide.michelin.com/en/tokyo-region/tokyo/restaurant/seizan,2 MICHELIN Stars,104.47337539432174,168.17868367760263
Ginza Kojyu,"5-4-8 Ginza, Chuo-ku, Tokyo, 104-0061, Japan",Tokyo,Japanese,139.7631055,35.6713964,-14946,https://guide.michelin.com/en/tokyo-region/tokyo/restaurant/ginza-koju,2 MICHELIN Stars,104.47337539432174,168.17868367760263
Sukiyabashi Jiro Roppongiten,"6-12-2 Roppongi, Minato-ku, Tokyo, 106-0032, Japan",Tokyo,Sushi,139.729049,35.658713,-11226,https://guide.michelin.com/en/tokyo-region/tokyo/restaurant/sukiyabashi-jiro-roppongiten,2 MICHELIN Stars,104.47337539432174,168.17868367760263
PIERRE GAGNAIRE,"1-12-33 Akasaka, Minato-ku, Tokyo, 107-0052, Japan",Tokyo,French,139.741089,35.668231,-3877,https://guide.michelin.com/en/tokyo-region/tokyo/restaurant/pierre-gagnaire-1194140,2 MICHELIN Stars,104.47337539432174,168.17868367760263
ESqUISSE,"5-4-6 Ginza, Chuo-ku, Tokyo, 104-0061, Japan",Tokyo,French,139.7634411,35.6717167,-10304,https://guide.michelin.com/en/tokyo-region/tokyo/restaurant/esquisse,2 MICHELIN Stars,104.47337539432174,168.17868367760263
Akasaka Kikunoi,"6-13-8 Akasaka, Minato-ku, Tokyo, 107-0052, Japan",Tokyo,Japanese,139.734068,35.669869,-8810,https://guide.michelin.com/en/tokyo-region/tokyo/restaurant/akasaka-kikunoi,2 MICHELIN Stars,104.47337539432174,168.17868367760263
Sushi Kimura,"3-21-8 Tamagawa, Setagaya-ku, Tokyo, 158-0094, Japan",Tokyo,Sushi,139.624364,35.616,Openinghours,https://guide.michelin.com/en/tokyo-region/tokyo/restaurant/sushi-kimura-1193998,2 MICHELIN Stars,104.47337539432174,168.17868367760263
NARISAWA,"2-6-15 Minamiaoyama, Minato-ku, Tokyo, 107-0062, Japan",Tokyo,Innovative,139.722147,35.671585,-5771,https://guide.michelin.com/en/tokyo-region/tokyo/restaurant/narisawa,2 MICHELIN Stars,104.47337539432174,168.17868367760263
Ginza Shinohara,"2-8-17 Ginza, Chuo-ku, Tokyo, 104-0061, Japan",Tokyo,Japanese,139.767805,35.673039,-5795,https://guide.michelin.com/en/tokyo-region/tokyo/restaurant/ginza-shinohara,2 MICHELIN Stars,104.47337539432174,168.17868367760263
Kaiseki Tsujitome,"1-5-8 Motoakasaka, Minato-ku, Tokyo, 107-0051, Japan",Tokyo,Japanese,139.733632,35.677383,-6574,https://guide.michelin.com/en/tokyo-region/tokyo/restaurant/kaiseki-tsujitome,2 MICHELIN Stars,104.47337539432174,168.17868367760263
Édition Koji Shimomura,"3-1-1 Roppongi, Minato-ku, Tokyo, 106-0032, Japan",Tokyo,French,139.738152,35.66558,-9298,https://guide.michelin.com/en/tokyo-region/tokyo/restaurant/edition-koji-shimomura,2 MICHELIN Stars,104.47337539432174,168.17868367760263
Sawada,"5-9-19 Ginza, Chuo-ku, Tokyo, 104-0061, Japan",Tokyo,Sushi,139.7652771,35.6704915,-7469,https://guide.michelin.com/en/tokyo-region/tokyo/restaurant/sawada,2 MICHELIN Stars,104.47337539432174,168.17868367760263
ZURRIOLA,"6-8-7 Ginza, Chuo-ku, Tokyo, 104-0061, Japan",Tokyo,Spanish,139.7625586,35.6698891,-7807,https://guide.michelin.com/en/tokyo-region/tokyo/restaurant/zurriola,2 MICHELIN Stars,104.47337539432174,168.17868367760263
Kaiseki Komuro,"35-4 Wakamiyacho, Shinjuku-ku, Tokyo, 162-0827, Japan",Tokyo,Japanese,139.7383758,35.6993011,-5754,https://guide.michelin.com/en/tokyo-region/tokyo/restaurant/kaiseki-komuro,2 MICHELIN Stars,104.47337539432174,168.17868367760263
Kutan,"2-5-5 Shintomi, Chuo-ku, Tokyo, 104-0041, Japan",Tokyo,Japanese,139.7740739,35.6715708,-5065,https://guide.michelin.com/en/tokyo-region/tokyo/restaurant/kutan,2 MICHELIN Stars,104.47337539432174,168.17868367760263
Tentempura Uchitsu,"5-25-4 Hiroo, Shibuya-ku, Tokyo, 150-0012, Japan",Tokyo,Tempura,139.721271,35.647881,-15186,https://guide.michelin.com/en/tokyo-region/tokyo/restaurant/tentempura-uchitsu,2 MICHELIN Stars,104.47337539432174,168.17868367760263
Tempura Ginya,"5-17-9 Shirokanedai, Minato-ku, Tokyo, 108-0071, Japan",Tokyo,Tempura,139.723162,35.637444,-12221,https://guide.michelin.com/en/tokyo-region/tokyo/restaurant/tempura-ginya,2 MICHELIN Stars,104.47337539432174,168.17868367760263
Kioicho Fukudaya,"1-13 Kioicho, Chiyoda-ku, Tokyo, 102-0094, Japan",Tokyo,Japanese,139.735961,35.680298,-11025,https://guide.michelin.com/en/tokyo-region/tokyo/restaurant/kioicho-fukudaya,2 MICHELIN Stars,104.47337539432174,168.17868367760263
Harutaka,"8-3-1 Ginza, Chuo-ku, Tokyo, 104-0061, Japan",Tokyo,Sushi,139.7591865,35.6692615,-3904,https://guide.michelin.com/en/tokyo-region/tokyo/restaurant/harutaka,2 MICHELIN Stars,104.47337539432174,168.17868367760263
Kojima,"6F Boon the Shop, 21 Apgujeong-ro 60-gil, Gangnam-gu, SEOUL, South Korea",SEOUL,Sushi,127.04193,37.52559,-2525,https://guide.michelin.com/en/seoul-capital-area/kr-seoul/restaurant/kojima,2 MICHELIN Stars,104.47337539432174,168.17868367760263
alla Prima,"13 Hakdong-ro 17-gil, Gangnam-gu, SEOUL, South Korea",SEOUL,Innovative,127.02602,37.51346,-2244,https://guide.michelin.com/en/seoul-capital-area/kr-seoul/restaurant/alla-prima,2 MICHELIN Stars,104.47337539432174,168.17868367760263
Jungsik,"11 Seolleung-ro 158-gil, Gangnam-gu, SEOUL, South Korea",SEOUL,Contemporary,127.041069,37.525584,-4349,https://guide.michelin.com/en/seoul-capital-area/kr-seoul/restaurant/jungsik511965,2 MICHELIN Stars,104.47337539432174,168.17868367760263
Mosu,"45 Itaewon-ro 55ga-gil, Yongsan-gu, SEOUL, South Korea",SEOUL,Innovative,126.99935,37.53644,-5966,https://guide.michelin.com/en/seoul-capital-area/kr-seoul/restaurant/mosu,2 MICHELIN Stars,104.47337539432174,168.17868367760263
Kwonsooksoo,"4F, 37 Apgujeong-ro 80-gil, Gangnam-gu, SEOUL, South Korea",SEOUL,Korean,127.04355,37.52437,-5988,https://guide.michelin.com/en/seoul-capital-area/kr-seoul/restaurant/kwonsooksoo,2 MICHELIN Stars,104.47337539432174,168.17868367760263
Joo Ok,"3F The Plaza Hotel, 119 Sogong-ro, Jung-gu, SEOUL, South Korea",SEOUL,Korean,126.97806,37.56462,-9089,https://guide.michelin.com/en/seoul-capital-area/kr-seoul/restaurant/joo-ok,2 MICHELIN Stars,104.47337539432174,168.17868367760263
Mingles,"2F, 19 Dosan-daero 67-gil, Gangnam-gu, SEOUL, South Korea",SEOUL,Contemporary,127.04414,37.52533,-6999,https://guide.michelin.com/en/seoul-capital-area/kr-seoul/restaurant/mingles,2 MICHELIN Stars,104.47337539432174,168.17868367760263
Agli Amici,"via Liguria 252, Godia, 33100, Italy",Godia,Modern Cuisine,13.2661148,46.1022873,3.90433E+11,https://guide.michelin.com/en/friuli-venezia-giulia/godia/restaurant/agli-amici,2 MICHELIN Stars,112.00000000000001,156.8
daní maison,"via I Traversa Montetignuso 28, Ischia, 80077, Italy",Ischia,"Creative, Italian",13.9481302,40.7265369,39081993190,https://guide.michelin.com/en/campania/ischia/restaurant/dani-maison,2 MICHELIN Stars,123.20000000000002,296.8
Castel finedining,"vicolo dei Castagni 18, Tirol, 39019, Italy",Tirol,"Creative, Modern Cuisine",11.1568653,46.6862223,3.90474E+11,https://guide.michelin.com/en/trentino-alto-adige/tirol/restaurant/trenkerstube,2 MICHELIN Stars,199.36,232.96000000000004
La Peca,"via Alberto Giovanelli 2, Lonigo, 36045, Italy",Lonigo,"Creative, Contemporary",11.3990641,45.3848934,3.90445E+11,https://guide.michelin.com/en/veneto/lonigo/restaurant/la-peca,2 MICHELIN Stars,106.4,224.00000000000003
La Madia,"corso Filippo Re Capriata 22, Licata, 92027, Italy",Licata,"Creative, Sicilian",13.9338055,37.1070131,3.90923E+11,https://guide.michelin.com/en/sicilia/licata/restaurant/la-madia,2 MICHELIN Stars,134.4,190.4
La Trota,"via Santa Susanna 33, località Piedicolle, Rivodutri, 02010, Italy",Rivodutri,"Creative, Regional Cuisine",12.8486278,42.4982957,3.90747E+11,https://guide.michelin.com/en/lazio/rivodutri/restaurant/la-trota,2 MICHELIN Stars,156.8,156.8
Villa Crespi,"via Fava 18, Orta San Giulio, 28016, Italy",Orta San Giulio,"Creative, Mediterranean Cuisine",8.4159486,45.7964778,3.90323E+11,https://guide.michelin.com/en/piemonte/orta-san-giulio/restaurant/villa-crespi,2 MICHELIN Stars,179.20000000000002,212.8
Taverna Estia,"via Guido De Ruggiero 108, Brusciano, 80031, Italy",Brusciano,Creative,14.4232938,40.9083323,3.90815E+11,https://guide.michelin.com/en/campania/brusciano/restaurant/taverna-estia,2 MICHELIN Stars,145.60000000000002,212.8
Caino,"via della Chiesa 4, Montemerano, 58050, Italy",Montemerano,Modern Cuisine,11.4906283,42.6220221,3.90565E+11,https://guide.michelin.com/en/toscana/montemerano/restaurant/caino,2 MICHELIN Stars,207.20000000000002,212.8
Quattro Passi,"via Vespucci 13/n, Marina del Cantone, 80061, Italy",Marina del Cantone,"Mediterranean Cuisine, Italian",14.3537561,40.5857091,3.90818E+11,https://guide.michelin.com/en/campania/marina-del-cantone/restaurant/quattro-passi,2 MICHELIN Stars,84.00000000000001,224.00000000000003
Antica Osteria Cera,"via Marghera 24, Lughetto, 30010, Italy",Lughetto,"Seafood, Modern Cuisine",12.1302222,45.3881476,3.90415E+11,https://guide.michelin.com/en/veneto/lughetto/restaurant/antica-osteria-cera,2 MICHELIN Stars,78.4,280.0
L'Olivo,"Via Capodimonte 14, Anacapri, 80071, Italy",Anacapri,"Creative, Italian",14.22207,40.55598,3.9082E+11,https://guide.michelin.com/en/campania/anacapri/restaurant/l-olivo,2 MICHELIN Stars,201.60000000000002,246.40000000000003
Krèsios,"via San Giovanni 59, Telese, 82037, Italy",Telese,"Creative, Contemporary",14.5000207,41.2045624,3.90825E+11,https://guide.michelin.com/en/campania/telese/restaurant/kresios,2 MICHELIN Stars,168.00000000000003,168.00000000000003
Don Alfonso 1890,"corso Sant'Agata 11, Sant' Agata sui Due Golfi, 80061, Italy",Sant' Agata sui Due Golfi,"Creative, Italian",14.3737397,40.6078108,3.90819E+11,https://guide.michelin.com/en/campania/sant--agata-sui-due-golfi/restaurant/don-alfonso-1890151521,2 MICHELIN Stars,179.20000000000002,212.8
Harry's Piccolo,"piazza Unità d'Italia 2, Trieste, 34121, Italy",Trieste,Creative,13.7674965,45.6497647,39040660606,https://guide.michelin.com/en/friuli-venezia-giulia/trieste/restaurant/harry-s-piccolo,2 MICHELIN Stars,145.60000000000002,224.00000000000003
Arnolfo,"via XX Settembre 50/52, Colle di Val d'Elsa, 53034, Italy",Colle di Val d'Elsa,Creative,11.1166755,43.4209535,3.90578E+11,https://guide.michelin.com/en/toscana/colle-di-val-d-elsa/restaurant/arnolfo,2 MICHELIN Stars,179.20000000000002,201.60000000000002
Duomo,"via Cap. Bocchieri 31, Ragusa, 97100, Italy",Ragusa,"Creative, Sicilian",14.7408333,36.9268317,3.90933E+11,https://guide.michelin.com/en/sicilia/ragusa/restaurant/duomo160079,2 MICHELIN Stars,72.80000000000001,221.76000000000002
La Madernassa,"località Lora 2, Guarene, 12050, Italy",Guarene,"Creative, Modern Cuisine",8.0112719,44.7352143,3.90174E+11,https://guide.michelin.com/en/piemonte/guarene/restaurant/la-madernassa,2 MICHELIN Stars,123.20000000000002,336.00000000000006
Miramonti l'Altro,"via Crosette 34, località Costorio, Concesio, 25062, Italy",Concesio,"Modern Cuisine, Contemporary",10.2043986,45.6135819,3.90303E+11,https://guide.michelin.com/en/lombardia/concesio/restaurant/miramonti-l-altro,2 MICHELIN Stars,100.80000000000001,168.00000000000003
Antica Corona Reale,"via Fossano 13, Cervere, 12040, Italy",Cervere,"Piedmontese, Regional Cuisine",7.788635,44.63505,3.90172E+11,https://guide.michelin.com/en/piemonte/cervere/restaurant/antica-corona-reale,2 MICHELIN Stars,112.00000000000001,168.00000000000003
D'O,"piazza della Chiesa 14, Cornaredo, 20010, Italy",Cornaredo,Creative,9.0119212,45.486885,39029362209,https://guide.michelin.com/en/lombardia/cornaredo/restaurant/d-o,2 MICHELIN Stars,123.20000000000002,201.60000000000002
Villa Feltrinelli,"via Rimembranza 38/40, Gargnano, 25084, Italy",Gargnano,"Creative, Contemporary",10.669477,45.693253,3.90366E+11,https://guide.michelin.com/en/lombardia/gargnano/restaurant/villa-feltrinelli,2 MICHELIN Stars,280.0,280.0
Bracali,"via di Perolla 2, Ghirlanda, 58020, Italy",Ghirlanda,Creative,10.8995225,43.0584193,3.90567E+11,https://guide.michelin.com/en/toscana/ghirlanda/restaurant/bracali,2 MICHELIN Stars,168.00000000000003,280.0
Torre del Saracino,"Via Torretta 9, Vico Equense, 80060, Italy",Vico Equense,"Creative, Italian",14.41912,40.66056,3.90818E+11,https://guide.michelin.com/en/campania/vico-equense/restaurant/torre-del-saracino,2 MICHELIN Stars,154.56,246.40000000000003
Piccolo Lago,"via Turati 87, al lago di Mergozzo, Fondotoce, 28924, Italy",Fondotoce,"Modern Cuisine, Contemporary",8.4722614,45.9579164,3.90324E+11,https://guide.michelin.com/en/piemonte/fondotoce/restaurant/piccolo-lago,2 MICHELIN Stars,201.60000000000002,201.60000000000002
Magnolia,"viale Trento 31, Cesenatico, 47042, Italy",Cesenatico,"Creative, Contemporary",12.404272,44.19562,39054781598,https://guide.michelin.com/en/emilia-romagna/cesenatico/restaurant/magnolia,2 MICHELIN Stars,134.4,156.8
Il Piccolo Principe,"piazza Giacomo Puccini 1, Viareggio, 55049, Italy",Viareggio,Creative,10.2355866,43.8809756,3905844011,https://guide.michelin.com/en/toscana/viareggio/restaurant/il-piccolo-principe,2 MICHELIN Stars,168.00000000000003,257.6
Gourmetstube Einhorn,"Campo di Trens, Mauls, 39040, Italy",Mauls,Creative,11.5204481,46.8511074,3.90473E+11,https://guide.michelin.com/en/trentino-alto-adige/mauls/restaurant/gourmetstube-einhorn,2 MICHELIN Stars,145.60000000000002,184.8
San Domenico,"via Sacchi 1, Imola, 40026, Italy",Imola,Classic Cuisine,11.7124431,44.3557172,39054229000,https://guide.michelin.com/en/emilia-romagna/imola/restaurant/san-domenico,2 MICHELIN Stars,67.2,212.8
Tre Olivi,"via Poseidonia 41, Paestum, 84063, Italy",Paestum,Modern Cuisine,14.9845016,40.4292596,3.90829E+11,https://guide.michelin.com/en/campania/paestum/restaurant/tre-olivi,2 MICHELIN Stars,100.80000000000001,145.60000000000002
Il Luogo di Aimo e Nadia,"via Montecuccoli 6, Milan, 20147, Italy",Milan,"Italian Contemporary, Modern Cuisine",9.130776,45.458435,3902416886,https://guide.michelin.com/en/lombardia/milano/restaurant/il-luogo-di-aimo-e-nadia,2 MICHELIN Stars,246.40000000000003,313.6
Seta by Antonio Guida,"via Monte di Pietà 18, Milan, 20121, Italy",Milan,"Contemporary, Modern Cuisine",9.191208,45.469845,3.90287E+11,https://guide.michelin.com/en/lombardia/milano/restaurant/seta-by-antonio-guida,2 MICHELIN Stars,106.4,313.6
Terra,"località Prati 21, Sarentino, 39058, Italy",Sarentino,"Creative, Regional Cuisine",11.3221975,46.6521107,3.90472E+11,https://guide.michelin.com/en/trentino-alto-adige/sarentino/restaurant/terra151934,2 MICHELIN Stars,200.48000000000002,200.48000000000002
Santa Elisabetta,"piazza Santa Elisabetta 3, Florence, 50122, Italy",Florence,"Creative, Mediterranean Cuisine",11.256,43.77173,3905527370,https://guide.michelin.com/en/toscana/firenze/restaurant/santa-elisabetta,2 MICHELIN Stars,122.08000000000001,224.00000000000003
Madonnina del Pescatore,"via Lungomare Italia 11, Marzocca, 60019, Italy",Marzocca,Creative,13.2821211,43.6806944,39071698267,https://guide.michelin.com/en/marche/marzocca/restaurant/madonnina-del-pescatore,2 MICHELIN Stars,72.80000000000001,196.00000000000003
Il Pagliaccio,"via dei Banchi Vecchi 129/a, Rome, 00186, Italy",Rome,"Creative, Innovative",12.4673729,41.89793,3.90669E+11,https://guide.michelin.com/en/lazio/roma/restaurant/il-pagliaccio,2 MICHELIN Stars,112.00000000000001,212.8
Glam Enrico Bartolini,"calle Tron, sestiere Santa Croce 1961, Venice, 30124, Italy",Venice,"Creative, Contemporary",12.3298209,45.4413057,3.90415E+11,https://guide.michelin.com/en/veneto/venezia/restaurant/glam-enrico-bartolini,2 MICHELIN Stars,156.8,235.20000000000002
Casa Perbellini,"piazza San Zeno 16, Verona, 37121, Italy",Verona,"Creative, Contemporary",10.9781986,45.4421602,3.90459E+11,https://guide.michelin.com/en/veneto/verona/restaurant/casa-perbellini,2 MICHELIN Stars,196.00000000000003,252.00000000000003
Spondi,"5 Pyrronos, Pangrati, Athens, 116 36, Greece",Athens,French,23.7431159,37.9653138,3.02108E+11,https://guide.michelin.com/en/attica/athens/restaurant/spondi,2 MICHELIN Stars,134.4,184.8
Miyamoto,"2-10-28 Higashitemma, Kita-ku, Osaka, 530-0044, Japan",Osaka,Japanese,135.5131455,34.6984007,-12983,https://guide.michelin.com/en/osaka-region/osaka/restaurant/miyamoto,2 MICHELIN Stars,104.47337539432174,168.17868367760263
Shunsaiten Tsuchiya,"41-4 Toyotsucho, Suita, Osaka, 564-0051, Japan",Osaka,Tempura,135.490914,34.760517,-7810,https://guide.michelin.com/en/osaka-region/osaka/restaurant/shunsaiten-tsuchiya,2 MICHELIN Stars,104.47337539432174,168.17868367760263
Honkogetsu,"1-7-11 Dotombori, Chuo-ku, Osaka, 542-0077, Japan",Osaka,Japanese,135.502523,34.668204,-5596,https://guide.michelin.com/en/osaka-region/osaka/restaurant/honkogetsu,2 MICHELIN Stars,104.47337539432174,168.17868367760263
KAHALA,"1-9-2 Sonezakishinchi, Kita-ku, Osaka, 530-0002, Japan",Osaka,Innovative,135.499685,34.697501,-12307,https://guide.michelin.com/en/osaka-region/osaka/restaurant/kahala,2 MICHELIN Stars,104.47337539432174,168.17868367760263
Sushi Harasho,"3-30 Uenomiyacho, Tennoji-ku, Osaka, 543-0037, Japan",Osaka,Sushi,135.5198395,34.6621965,-11475,https://guide.michelin.com/en/osaka-region/osaka/restaurant/sushi-harasho,2 MICHELIN Stars,104.47337539432174,168.17868367760263
Tenjimbashi Aoki,"7-12-14 Tenjimbashi, Kita-ku, Osaka, 531-0041, Japan",Osaka,Japanese,135.5110969,34.713963,-6527,https://guide.michelin.com/en/osaka-region/osaka/restaurant/aoki,2 MICHELIN Stars,104.47337539432174,168.17868367760263
La Cime,"3-2-15 Kawaramachi, Chuo-ku, Osaka, 541-0048, Japan",Osaka,French,135.503519,34.685818,-7416,https://guide.michelin.com/en/osaka-region/osaka/restaurant/la-cime,2 MICHELIN Stars,104.47337539432174,168.17868367760263
Sushiyoshi,"2-3-23 Minamimorimachi, Kita-ku, Osaka, 530-0054, Japan",Osaka,Sushi,135.510671,34.699892,-5607,https://guide.michelin.com/en/osaka-region/osaka/restaurant/sushiyoshi-1193182,2 MICHELIN Stars,104.47337539432174,168.17868367760263
Fujiya 1935,"2-4-14 Yariyamachi, Chuo-ku, Osaka, 540-0027, Japan",Osaka,Innovative,135.511871,34.683037,-8608,https://guide.michelin.com/en/osaka-region/osaka/restaurant/fujiya-1935,2 MICHELIN Stars,104.47337539432174,168.17868367760263
Numata,"1-10-2 Sonezakishinchi, Kita-ku, Osaka, 530-0002, Japan",Osaka,Tempura,135.497901,34.697954,-6238,https://guide.michelin.com/en/osaka-region/osaka/restaurant/numata,2 MICHELIN Stars,104.47337539432174,168.17868367760263
Koryu,"3-3-3 Uchiawajimachi, Chuo-ku, Osaka, 540-0038, Japan",Osaka,Japanese,135.510132,34.686929,1504,https://guide.michelin.com/en/osaka-region/osaka/restaurant/koryu,2 MICHELIN Stars,104.47337539432174,168.17868367760263
Gion Matayoshi,"570-123 Giommachi-minamigawa, Higashiyama-ku, Kyoto, 605-0074, Japan",Kyoto,Japanese,135.7745641,35.0033724,7507,https://guide.michelin.com/en/kyoto-region/kyoto/restaurant/gion-matayoshi,2 MICHELIN Stars,104.47337539432174,168.17868367760263
Kappo Chihiro,"279-8 Giommachi-kitagawa, Higashiyama-ku, Kyoto, 605-0073, Japan",Kyoto,Japanese,135.776154,35.004214,824,https://guide.michelin.com/en/kyoto-region/kyoto/restaurant/kappo-chihiro,2 MICHELIN Stars,104.47337539432174,168.17868367760263
Kyokaiseki Kichisen,"5 Shimogamo-morimotocho, Sakyo-ku, Kyoto, 606-0805, Japan",Kyoto,Japanese,135.771236,35.035717,1343,https://guide.michelin.com/en/kyoto-region/kyoto/restaurant/kyokaiseki-kichisen,2 MICHELIN Stars,104.47337539432174,168.17868367760263
Gion Maruyama,"570-171 Giommachi-minamigawa, Higashiyama-ku, Kyoto, 605-0074, Japan",Kyoto,Japanese,135.776065,35.002654,7641,https://guide.michelin.com/en/kyoto-region/kyoto/restaurant/gion-maruyama,2 MICHELIN Stars,104.47337539432174,168.17868367760263
Yusokuryori Mankamero,"387 Ebisucho, Inokuma-dori Demizu-agaru, Kamigyo-ku, Kyoto, 602-8118, Japan",Kyoto,Japanese,135.750504,35.022164,2714,https://guide.michelin.com/en/kyoto-region/kyoto/restaurant/yusokuryori-mankamero,2 MICHELIN Stars,104.47337539432174,168.17868367760263
Kenninji Gion Maruyama,"566-15 Komatsucho, Higashiyama-ku, Kyoto, 605-0811, Japan",Kyoto,Japanese,135.774574,34.998809,-2376,https://guide.michelin.com/en/kyoto-region/kyoto/restaurant/kenninji-gion-maruyama,2 MICHELIN Stars,104.47337539432174,168.17868367760263
Kodaiji Wakuden,"512 Washiocho, Higashiyama-ku, Kyoto, 605-0072, Japan",Kyoto,Japanese,135.779734,35.001635,4542,https://guide.michelin.com/en/kyoto-region/kyoto/restaurant/kodaiji-wakuden,2 MICHELIN Stars,104.47337539432174,168.17868367760263
Gion Nishikawa,"473 Shimokawaracho, Higashiyama-ku, Kyoto, 605-0825, Japan",Kyoto,Japanese,135.778857,34.999797,5874,https://guide.michelin.com/en/kyoto-region/kyoto/restaurant/gion-nishikawa,2 MICHELIN Stars,104.47337539432174,168.17868367760263
Ogata,"726 Shinkamanzacho, Shimogyo-ku, Kyoto, 600-8471, Japan",Kyoto,Japanese,135.755967,35.003191,-169,https://guide.michelin.com/en/kyoto-region/kyoto/restaurant/ogata,2 MICHELIN Stars,104.47337539432174,168.17868367760263
Kikunoi Roan,"118 Saitocho, Shimogyo-ku, Kyoto, 600-8012, Japan",Kyoto,Japanese,135.770615,35.003469,2234,https://guide.michelin.com/en/kyoto-region/kyoto/restaurant/kikunoi-roan,2 MICHELIN Stars,104.47337539432174,168.17868367760263
Sumibi Kappo Ifuki,"570-8 Giommachi-minamigawa, Higashiyama-ku, Kyoto, 605-0074, Japan",Kyoto,Japanese,135.775317,35.00236,985,https://guide.michelin.com/en/kyoto-region/kyoto/restaurant/sumibi-kappo-ifuki,2 MICHELIN Stars,104.47337539432174,168.17868367760263
Shimmonzen Yonemura,"255-1 Umemotocho, Higashiyama-ku, Kyoto, 605-0064, Japan",Kyoto,Innovative,135.776682,35.006214,943,https://guide.michelin.com/en/kyoto-region/kyoto/restaurant/shimmonzen-yonemura,2 MICHELIN Stars,104.47337539432174,168.17868367760263
Miyamaso,"375 Hanaseharachicho, Sakyo-ku, Kyoto, 601-1102, Japan",Kyoto,Japanese,135.793011,35.233154,7198,https://guide.michelin.com/en/kyoto-region/kyoto/restaurant/miyamaso,2 MICHELIN Stars,104.47337539432174,168.17868367760263
Sojiki Nakahigashi,"32-3 Jodojiishibashicho, Sakyo-ku, Kyoto, 606-8406, Japan",Kyoto,Japanese,135.792708,35.027601,3923,https://guide.michelin.com/en/kyoto-region/kyoto/restaurant/sojiki-nakahigashi,2 MICHELIN Stars,104.47337539432174,168.17868367760263
Otagi,"18 Takagamine-tsuchitenjocho, Kita-ku, Kyoto, 603-8465, Japan",Kyoto,Japanese,135.73416,35.050744,5912,https://guide.michelin.com/en/kyoto-region/kyoto/restaurant/otagi,2 MICHELIN Stars,104.47337539432174,168.17868367760263
Kyotenjin Noguchi,"573-11 Kitamachi, Tenjinmichi Kaminoshimodachiuri-agaru, Kamigyo-ku, Kyoto, 602-8368, Japan",Kyoto,Japanese,135.734392,35.022759,6269,https://guide.michelin.com/en/kyoto-region/kyoto/restaurant/kyotenjin-noguchi,2 MICHELIN Stars,104.47337539432174,168.17868367760263
Wagokoro Izumi,"634-3 Nioitenjincho, Shimogyo-ku, Kyoto, 600-8414, Japan",Kyoto,Japanese,135.760466,35.000915,3907,https://guide.michelin.com/en/kyoto-region/kyoto/restaurant/wagokoro-izumi,2 MICHELIN Stars,104.47337539432174,168.17868367760263
Gion Owatari,"570-265 Giommachi-minamigawa, Higashiyama-ku, Kyoto, 605-0074, Japan",Kyoto,Japanese,135.777074,35.001444,2372,https://guide.michelin.com/en/kyoto-region/kyoto/restaurant/gion-owatari,2 MICHELIN Stars,104.47337539432174,168.17868367760263
Oryori Mitsuyasu,"908-12 Koyamacho, Kamigyo-ku, Kyoto, 602-8157, Japan",Kyoto,Japanese,135.743425,35.01947,4671,https://guide.michelin.com/en/kyoto-region/kyoto/restaurant/oryori-mitsuyasu,2 MICHELIN Stars,104.47337539432174,168.17868367760263
Harbor House,"5600 CA-1, Elk, 95432, United States",Elk,"Californian, Creative",-123.719444,39.135876,-6394,https://guide.michelin.com/en/california/elk/restaurant/harbor-house,2 MICHELIN Stars,180.0,180.0
Vespertine,"3599 Hayden Ave., Culver City, 90232, United States",Culver City,Contemporary,-118.38166,34.024204,-3020,https://guide.michelin.com/en/california/culver-city/restaurant/vespertine,2 MICHELIN Stars,295.0,295.0
Providence,"5955 Melrose Ave., Hollywood, 90038, United States",Hollywood,Seafood,-118.3301829,34.083576,-3307,https://guide.michelin.com/en/california/hollywood/restaurant/providence,2 MICHELIN Stars,225.0,475.0
Sushi Ginza Onodera,"609 N. La Cienega Blvd., West Hollywood, 90069, United States",West Hollywood,"Japanese, Sushi",-118.3766888,34.082251,-3927,https://guide.michelin.com/en/california/west-hollywood/restaurant/sushi-ginza-onodera-559850,2 MICHELIN Stars,300.0,300.0
Addison,"5200 Grand Del Mar Way, San Diego, 92130, United States",San Diego,"Contemporary, French",-117.1988908,32.9412972,-356,https://guide.michelin.com/en/california/us-san-diego/restaurant/addison,2 MICHELIN Stars,175.0,275.0
Commis,"3859 Piedmont Ave., Oakland, 94611, United States",Oakland,Contemporary,-122.254846,37.8246825,-3045,https://guide.michelin.com/en/california/oakland/restaurant/commis,2 MICHELIN Stars,189.0,189.0
Mélisse,"1104 Wilshire Blvd., Santa Monica, 90401, United States",Santa Monica,French,-118.4915408,34.0245313,34,https://guide.michelin.com/en/california/santa-monica/restaurant/melisse,2 MICHELIN Stars,295.0,295.0
Hayato,"1320 E. 7th St., Ste. 126, Los Angeles, 90021, United States",Los Angeles,"Japanese, Seafood",-118.2418788,34.0338072,211,https://guide.michelin.com/en/california/us-los-angeles/restaurant/hayato,2 MICHELIN Stars,295.0,295.0
n/naka,"3455 S. Overland Ave., Los Angeles, 90034, United States",Los Angeles,"Japanese, Contemporary",-118.41206,34.02526,-5778,https://guide.michelin.com/en/california/us-los-angeles/restaurant/n-naka,2 MICHELIN Stars,245.0,285.0
Lazy Bear,"3416 19th St., San Francisco, 94110, United States",San Francisco,"Contemporary, Modern Cuisine",-122.41969,37.760204,-9380,https://guide.michelin.com/en/california/san-francisco/restaurant/lazy-bear,2 MICHELIN Stars,199.0,221.0
Birdsong,"1085 Mission St., San Francisco, 94103, United States",San Francisco,"Contemporary, American",-122.41048,37.779495,-8115,https://guide.michelin.com/en/california/san-francisco/restaurant/birdsong,2 MICHELIN Stars,255.0,255.0
Saison,"178 Townsend St., San Francisco, 94107, United States",San Francisco,"Californian, Contemporary",-122.41543,37.76327,-7403,https://guide.michelin.com/en/california/san-francisco/restaurant/saison,2 MICHELIN Stars,248.0,306.0
Campton Place,"340 Stockton St., San Francisco, 94108, United States",San Francisco,"Indian, Contemporary",-122.40665,37.78923,-4919,https://guide.michelin.com/en/california/san-francisco/restaurant/campton-place,2 MICHELIN Stars,65.0,167.0
Acquerello,"1722 Sacramento St., San Francisco, 94109, United States",San Francisco,"Italian, Contemporary",-122.42131,37.79167,-4584,https://guide.michelin.com/en/california/san-francisco/restaurant/acquerello,2 MICHELIN Stars,150.0,250.0
Coi,"373 Broadway, San Francisco, 94133, United States",San Francisco,"Contemporary, Californian",-122.4033677,37.7981895,-7978,https://guide.michelin.com/en/california/san-francisco/restaurant/coi,2 MICHELIN Stars,250.0,250.0
Californios,"355 11th St., San Francisco, 94103, United States",San Francisco,"Mexican, Contemporary",-122.4131414,37.7712406,-336,https://guide.michelin.com/en/california/san-francisco/restaurant/californios,2 MICHELIN Stars,223.0,223.0
Hiša Franko,"Staro selo 1, Kobarid, 5222, Slovenia",Kobarid,"Creative, Regional Cuisine",13.5382362,46.2472961,38653894120,https://guide.michelin.com/en/gorizia/kobarid/restaurant/hisa-franko,2 MICHELIN Stars,252.00000000000003,252.00000000000003
Oaxen Krog,"Beckholmsvägen 26, Stockholm, 115 21, Sweden",Stockholm,"Creative, Country cooking",18.1017477,59.3225114,46855153105,https://guide.michelin.com/en/stockholm-region/stockholm/restaurant/oaxen-krog,2 MICHELIN Stars,104.47337539432174,168.17868367760263
Gastrologik,"Artillerigatan 14, Stockholm, 114 51, Sweden",Stockholm,Creative,18.0808749,59.3336953,4686623060,https://guide.michelin.com/en/stockholm-region/stockholm/restaurant/gastrologik,2 MICHELIN Stars,104.47337539432174,168.17868367760263
Aloë,"Svartlösavägen 52, Stockholm, 125 33, Sweden",Stockholm,Creative,17.9857179,59.2843177,46731544151,https://guide.michelin.com/en/stockholm-region/stockholm/restaurant/aloe,2 MICHELIN Stars,104.47337539432174,168.17868367760263
Vollmers,"Tegelgårdsgatan 5, Malmo, 211 33, Sweden",Malmo,Creative,12.9966201,55.6046461,4640579750,https://guide.michelin.com/en/skane/malmo/restaurant/vollmers,2 MICHELIN Stars,104.47337539432174,168.17868367760263
RE-NAA,"Nordbøgata 8, Stavanger, 4006, Norway",Stavanger,Creative,5.7308447,58.9739705,4751551111,https://guide.michelin.com/en/rogaland/stavanger/restaurant/re-naa,2 MICHELIN Stars,104.47337539432174,168.17868367760263
KOKS,"Frammi við Gjónna, Leynavatn, 335, Denmark",Leynavatn,Creative,-7.022025,62.13667,298333999,https://guide.michelin.com/en/faroe-islands/leynavatn/restaurant/koks558780,2 MICHELIN Stars,104.47337539432174,168.17868367760263
Henne Kirkeby Kro,"Strandvejen 234, Henne, 6854, Denmark",Henne,Classic Cuisine,8.2420292,55.7266717,4575255400,https://guide.michelin.com/en/southern-denmark/henne/restaurant/henne-kirkeby-kro,2 MICHELIN Stars,104.0,168.17868367760263
Kadeau Copenhagen,"Wildersgade 10B, Copenhagen, 1408, Denmark",Copenhagen,Modern Cuisine,12.5888136,55.6722948,4533252223,https://guide.michelin.com/en/capital-region/copenhagen/restaurant/kadeau-copenhagen,2 MICHELIN Stars,104.47337539432174,168.17868367760263
a|o|c,"Dronningens Tværgade 2, Copenhagen, 1302 K, Denmark",Copenhagen,Modern Cuisine,12.5889875,55.6831927,4533111145,https://guide.michelin.com/en/capital-region/copenhagen/restaurant/a%E2%80%9Ao%E2%80%9Ac,2 MICHELIN Stars,104.47337539432174,168.17868367760263
